DENOMINAZIONESCUOLA,DESCRIZIONEGRADOSCUOLA,PROVINCIA,DESCRIZIONECOMUNE,INDIRIZZOSCUOLA,CAPSCUOLA,CODICECOMUNESCUOLA,INDIRIZZOEMAILSCUOLA,SITOWEBSCUOLA,CODICESCUOLA,LATITUDINE,LONGITUDINE,COR_COMUNE
TERZIGNO - VIALE BIFULCO,SCUOLA PRIMARIA,NAPOLI,TERZIGNO,VIALE BIFULCO,Non Disponibile,L142,NAEE18700G@istruzione.it,scuolaprimariaterzigno.gov.it,NAEE18708X,40.80996555,14.49622445,1
ERCOLANO 5 IOVINO SCOTELLARO,ISTITUTO COMPRENSIVO,NAPOLI,ERCOLANO,VIA CUPARELLA N. 2,80056,H243,NAIC8DB003@istruzione.it,Non Disponibile,NAIC8DB003,40.8099197,14.3481692,0
VIA ALDO MORO-ROBBIOLO,SCUOLA PRIMARIA,MILANO,BUCCINASCO,VIA ALDO MORO 14,20090,B240,MIIC8EF00B@istruzione.it,www.icspadrepinopuglisi.edu.it,MIEE8EF01D,45.4187831,9.12719415188407,0
PORTICI 3 ISTITUTO COMPRENSIVO,ISTITUTO COMPRENSIVO,NAPOLI,PORTICI,VIA S. CRISTOFARO 56/BIS,80055,G902,NAIC8BP001@istruzione.it,Non Disponibile,NAIC8BP001,40.8238546,14.3314202,0
GRAMSCI + GEMELLI,SCUOLA PRIMO GRADO,MILANO,MILANO,VIA TOSI MALAGA 21,20143,F205,MIIC8CY00P@istruzione.it,www.icscapponi.it,MIMM8CY01Q,45.4667585,9.1904133,1
NA I.C. 12 FOSCOLO - BACCINI,SCUOLA INFANZIA,NAPOLI,NAPOLI,VICO LEPRE AI VENTAGLIERI 1,80135,F839,NAIC8E900C@istruzione.it,www.scuolafoscoloberdan.gov.it,NAAA8E902A,40.8492072,14.2444424,0
VIA ZUARA 7/MILANO,SCUOLA PRIMO GRADO,MILANO,MILANO,VIA ZUARA 7,20146,F205,MIIC8DA00N@istruzione.it,ICSTOLSTOJ.gov.it,MIMM8DA01P,45.4570021,9.1494383,0
I.C. PARRI - VIAN,ISTITUTO COMPRENSIVO,TORINO,TORINO,STRADA LANZO 147/11,10148,L219,TOIC8BR003@ISTRUZIONE.IT,Non Disponibile,TOIC8BR003,45.1159973,7.6579022,0
NA IC 68 - RIONE VECCHIO,SCUOLA INFANZIA,NAPOLI,NAPOLI,VIA VOLPICELLA384RIONE VECCHIO S ROSA,80147,F839,NAIC8C800B@istruzione.it,www.ic68rodino.gov.it,NAAA8C804B,40.856406199999995,14.262933219240084,1
VOLLA I.C.SAN G. BOSCO - ROSSI,SCUOLA PRIMARIA,NAPOLI,VOLLA,VIA ROSSI 35,80040,M115,NAIC8B800R@istruzione.it,www.icsangiovanniboscovolla.gov.it,NAEE8B801V,40.8722046,14.3450419,0
D.D. N. GARZILLI - PA,SCUOLA PRIMARIA,PALERMO,PALERMO,VIA ISONZO 7,90144,G273,PAEE020005@istruzione.it,www.cdgarzilli.gov.it,PAEE020016,38.141956,13.342448,0
I.C.SETTIMO VITTONE -CAREMA,SCUOLA INFANZIA,TORINO,CAREMA,VIA SAN MATTEO4,10010,B762,TOIC849008@istruzione.it,WWW.ICSETTIMO VITTONE,TOAA849026,45.584001,7.8126715,1
CAP. POLIZZI,SCUOLA PRIMARIA,PALERMO,PARTINICO,PIAZZA  POETESSA BONURA,90047,G348,PAIC8A7007@istruzione.it,www.icpriviterapolizzi.it,PAEE8A7019,38.044048,13.1175753,0
F. FERRARA,ISTITUTO MAGISTRALE,PALERMO,PALERMO,VIA SGARLATA 11,90133,G273,PAIS02300P@istruzione.it,www.iissfrancescoferrara.it,PAPM023016,38.1185234,13.3605542,0
CARDITO 2 -DON BOSCO,SCUOLA INFANZIA,NAPOLI,CARDITO,VIA TAVERNA,80024,B759,NAIC8GM00E@istruzione.it,WWW.CARDITOIC2DONBOSCO.GOV.IT,NAAA8GM01B,42.4941913,13.4565298,1
PALIZZI -CASORIA-,SCUOLA PRIMO GRADO,NAPOLI,CASORIA,PIAZZA DANTE SNC,80026,B990,NAIC8EV005@istruzione.it,www.palizzicasoria.gov.it,NAMM8EV016,40.9070831,14.2986838,0
SCUOLA DELL'NFANZIA IV NOVEMBRE,SCUOLA INFANZIA,NAPOLI,CAPRI,VIA P.SERAFINO CIMINO,80073,B696,NAIC8AB007@istruzione.it,www.nievocapri.it,NAAA8AB025,45.1179427,7.3325745,1
I.C. ANTONIO UGO,SCUOLA INFANZIA,PALERMO,PALERMO,VIA ETTORE ARCULEO 39,90135,G273,PAIC87700V@istruzione.it,www.icsaugo.gov.it,PAAA87701Q,38.117716,13.3335415,0
"S.INFANZIA ""G. CONTE""",SCUOLA INFANZIA,NAPOLI,TORRE DEL GRECO,VIA SANTA MARIA LA BRUNA 148,80059,L259,NAIC8DF00A@istruzione.it,WWW.ICFALCONESCAUDA.IT,NAAA8DF028,40.7625683,14.398094286061024,0
LICEO SCIENT. E SC. UMANE S. CANTONE,LICEO SCIENTIFICO,NAPOLI,POMIGLIANO D'ARCO,VIA SAVONA,80038,G812,NAPS99000T@istruzione.it,www.liceocantone.gov.it,NAPS99000T,40.9106807,14.3922902,0
SAN CIRO,SCUOLA PRIMARIA,PALERMO,MARINEO,CORSO DEI MILLE 2,90035,E957,PAIC839004@istruzione.it,www.icmarineobolognetta.it,PAEE839027,37.9533008,13.4129709,0
ISTITUTO TECNICO TURISTICO PAOLO BOSELLI,ISTITUTO TECNICO COMMERCIALE,TORINO,TORINO,VIA MONTECUCCOLI 12,10121,L219,TOIS052008@istruzione.it,www.istitutoboselli.it,TOTD05201E,45.0703119,7.6708757,0
I.C. PINEROLO I,ISTITUTO COMPRENSIVO,TORINO,PINEROLO,VIA EINAUDI 38,10064,G674,TOIC8BM00X@istruzione.it,Non Disponibile,TOIC8BM00X,44.882003499999996,7.334099642186448,1
ISTITUTO COMPRENSIVO CASTELGAND,ISTITUTO COMPRENSIVO,ROMA,CASTEL GANDOLFO,VIA UGO LA MALFA 3,00073,C116,RMIC8A500N@istruzione.it,Non Disponibile,RMIC8A500N,41.7448456,12.6462758,0
MALATESTA,SCUOLA PRIMARIA,ROMA,VELLETRI,VIA VECCHIA DI MALATESTA 31,00049,L719,RMIC8F700A@istruzione.it,www.ginofelci.it,RMEE8F705L,41.7049202,12.7938301,1
M.LUTHER KING,SCUOLA PRIMARIA,MILANO,SAN DONATO MILANESE,VIA DI VITTORIO,20097,H827,Non Disponibile,www.ilprimosandonatomilanese.it/new/,MIEE8FA033,45.4073193,9.2646192,0
IC RIVALTA-HANSEL & GRETEL,SCUOLA INFANZIA,TORINO,RIVALTA DI TORINO,VIA FOSSANO 10,10040,H335,TOIC84000T@istruzione.it,www.ictettifrancesi.it,TOAA84002Q,44.9976524,7.5137618,0
CASA DEL FANCIULLO,SCUOLA INFANZIA,PALERMO,PALERMO,VIA MESSINA MARINE 811,90123,G273,PAIC855002@istruzione.it,istcompguttuso.gov.it,PAAA85501V,38.1077934,13.3817003,0
CPIA 2 TORINO,SCUOLA PRIMO GRADO,TORINO,TORINO,VIA BOLOGNA 153,10154,L219,TOMM32400G@istruzione.it,Non Disponibile,TOMM32400G,45.0877402,7.7069605,0
IC GIAVENO GONIN - CROLLE,SCUOLA PRIMARIA,TORINO,GIAVENO,VIA COAZZE 82,10094,E020,TOIC87000N@istruzione.it,www.icgonin.gov.it,TOEE87003T,45.0411377,7.3455523,0
A. MORO,LICEO SCIENTIFICO,TORINO,RIVAROLO CANAVESE,VIALE LOSEGO N.2,10086,H340,TOIS00400V@istruzione.it,www.istitutomoro.it,TOPS004019,45.3294122,7.7199644,0
AGOSTA,SCUOLA PRIMO GRADO,ROMA,AGOSTA,VIA ROMA S.N.C.,00020,A084,RMIC8DZ00R@istruzione.it,http//www.istitutocomprensivosubiaco.gov.it/,RMMM8DZ02V,41.9809267,13.0336298,0
BATTISTI,SCUOLA PRIMO GRADO,ROMA,ROMA,VIA DIVISIONE TORINO 119,00143,H501,RMIC86100B@istruzione.it,www.icmontanelli.gov.it,RMMM86101C,41.8664585,12.477999882906396,1
CASTEL DI LEVA,SCUOLA PRIMARIA,ROMA,ROMA,VIA ARDEATINA KM. 13,00134,H501,Non Disponibile,www.icviafrignani.it,RMEE8FH05C,41.7957639,12.5346364,0
I.C. SANTENA - VIA VIGNASSO,SCUOLA PRIMARIA,TORINO,SANTENA,VIA TETTI AGOSTINO 31,10026,I327,TOIC858003@istruzione.it,www.scuolesantena.it,TOEE858037,44.949467999999996,7.7831734762384315,0
I.C. VITTORINO DA FELTRE-FERMI,SCUOLA PRIMO GRADO,TORINO,TORINO,PIAZZA GIACOMINI 24,10126,L219,TOIC8A100T@istruzione.it,www.vittorinodafeltre.it,TOMM8A101V,45.3320533,7.2674162,1
IC. MONCAL.-NASI DE AMICIS,SCUOLA PRIMARIA,TORINO,MONCALIERI,STRADA MARSE' 43 (BORGATA  PALERA),10024,F335,TOIC887003@istruzione.it,htt//www.icnasi.it,TOEE887037,44.9956293,7.6967078,1
C.MARE DI STABIA 4 C.D.,SCUOLA PRIMARIA,NAPOLI,CASTELLAMMARE DI STABIA,TRAVERSA ANNUNZIATELLA,80053,C129,NAEE12800Q@istruzione.it,Non Disponibile,NAEE12800Q,40.7169565,14.4958644,0
I.C.PADRE GEMELLI -C.CINCINNATO,SCUOLA INFANZIA,TORINO,TORINO,CORSO CINCINNATO 121,10151,L219,TOIC873005@istruzione.it,www.padregemelli.it,TOAA873023,45.0981158,7.6399073,0
QUARTO 2 - FALCONE,SCUOLA PRIMARIA,NAPOLI,QUARTO,VIA CAMPANA,80010,H114,NAEE23600G@istruzione.it,www.direzionedidatticaquarto2.it,NAEE23602N,40.8943426,14.1233864,0
NA IC 87 PERTINI - DON GUANELLA,SCUOLA PRIMARIA,NAPOLI,NAPOLI,VIA DON PINO PUGLISI 55,80145,F839,NAIC8E5005@istruzione.it,www.scuolamediapertini.gov.it,NAEE8E5017,40.892794,14.2443341,0
I.C. S.M. S.GIOV. BOSCO VOLLA,SCUOLA PRIMO GRADO,NAPOLI,VOLLA,VIA NAPOLI 35,80040,M115,NAIC8B800R@istruzione.it,www.icsangiovanniboscovolla.gov.it,NAMM8B801T,40.8766606,14.3345377,0
PERCORSO II LIV. SEZ CARC J. VON NEUMANN,ISTITUTO TECNICO COMMERCIALE,ROMA,ROMA,C.C. REBIBBIA,00156,H501,RMIS022001@istruzione.it,info@vonneumann.it,RMTD022017,41.8664585,12.477999882906396,1
EUROPA,SCUOLA PRIMARIA,ROMA,ROMA,VIA GROTTAPERFETTA 524,00142,H501,RMIC82900G@istruzione.it,icdallachiesa@istruzione.gov.it,RMEE82901N,41.8664585,12.477999882906396,1
BACCARINI,SCUOLA PRIMARIA,ROMA,ROMA,VIA SFORZA 2,00185,H501,RMIC817009@istruzione.it,icguicciardini.it,RMEE81703D,41.895705750000005,12.495318613295726,0
I.C. PIANEZZA - GIOVANNI XXIII,SCUOLA PRIMO GRADO,TORINO,PIANEZZA,VIA MANZONI 5,10044,G559,TOIC89700N@istruzione.it,htt//www.icpianezza.eu,TOMM89701P,45.10204725,7.548502843295863,0
PROFESSIONALE,IST PROF PER I SERVIZI COMMERCIALI E TURISTICI,ROMA,ROMA,VIA S.MARIA ALLE FORNACI 1,00165,H501,RMIS118006@istruzione.it,www.luigieinaudiroma.gov.it/,RMRC118015,41.8664585,12.477999882906396,1
VIA DEI LECCI-BRACCIANO,IST PROF PER I SERVIZI COMMERCIALI E TURISTICI,ROMA,BRACCIANO,VIA DEI LECCIS.N.C.,00062,B114,RMIS048005@istruzione.it,www.iisslucapaciolo.it,RMRC048014,42.0414677,12.185031446884377,1
ROCCARAINOLA IC - FELLINO,SCUOLA PRIMARIA,NAPOLI,ROCCARAINOLA,VIA MADONNELLE,80030,H433,NAIC8FX00B@istruzione.it,www.istitutocomprensivoroccarainola.gov.it,NAEE8FX04L,40.9737287,14.5394667,0
CIAMPINO II - M. L. KING,SCUOLA PRIMARIA,ROMA,CIAMPINO,VIA BOLOGNA,00043,M272,RMEE22100R@istruzione.it,www.2circolodidatticodiciampino.it,RMEE221052,41.7894335,12.6131062,0
NA IC 46 - PLESSO SCIALOJA,SCUOLA INFANZIA,NAPOLI,NAPOLI,VIA COMUNALE OTTAVIANO 130 BIS,80146,F839,NAIC8EC00D@istruzione.it,WWW.IC46SCIALOIACORTESE.GOV.IT,NAAA8EC01A,40.8414189,14.3039564,0
I.C. SETTIMO II,ISTITUTO COMPRENSIVO,TORINO,SETTIMO TORINESE,VIA CUNEO 1,10036,I703,TOIC8BA00C@istruzione.it,Non Disponibile,TOIC8BA00C,45.1306239,7.7597802,0
PLESSO MONTESSORI,SCUOLA PRIMARIA,MILANO,MILANO,VIA SALERNO 1,Non Disponibile,F205,MIIC8DZ008@istruzione.it,www.icilariaalpi.gov.it,MIEE8DZ05E,45.4667585,9.1904133,1
OMERO,LICEO CLASSICO,MILANO,MILANO,VIA FRANCESCO GATTI 16,20162,F205,MIIS03900T@istruzione.it,www.iis-russell.gov.it,MIPC039015,45.5064503,9.1911141,0
I.C. CALUSO-VISCHE,SCUOLA PRIMARIA,TORINO,VISCHE,PIAZZA AMIONE,10030,M071,TOIC8BU00X@istruzione.it,http//www.scuola-parri-to.gov.it/,TOEE8BU067,45.3333026,7.9504207,0
ANTONIO GRAMSCI,SCUOLA PRIMO GRADO,ROMA,ALBANO LAZIALE,VIA DEL MARE,00040,A132,RMIC8AX006@istruzione.it,www.icalbanopavona.it,RMMM8AX017,41.7236989,12.6078129,0
IC VIA P. STABILINI,ISTITUTO COMPRENSIVO,ROMA,ROMA,VIA P. STABILINI 19,00173,H501,RMIC8GA002@istruzione.it,Non Disponibile,RMIC8GA002,41.8664585,12.477999882906396,1
I.C. CD 6^ FAVA - SMS GIOIA,SCUOLA PRIMO GRADO,NAPOLI,NAPOLI,VICO TRONE 14/B,80136,F839,NAIC85200N@istruzione.it,www.favagioia.it,NAMM85201P,40.8559693,14.2383335,0
VILLA FAVORITA,SCUOLA PRIMARIA,MILANO,CORBETTA,VIA S.SEBASTIANO,20011,C986,MIIC85600B@istruzione.it,www.icscorbetta.gov.it,MIEE85602E,45.4644309,8.9182313,0
I.C. MOLINO VECCHIO-GORGONZOLA,ISTITUTO COMPRENSIVO,MILANO,GORGONZOLA,VIA MOLINO VECCHIO,20064,E094,MIIC8E600B@istruzione.it,Non Disponibile,MIIC8E600B,45.5305005,9.4120061,0
I.C.TORRE PELLICE-VILLAR PELLIC,SCUOLA PRIMARIA,TORINO,VILLAR PELLICE,VIALE  I MAGGIO 23,10060,M013,TOIC81300D@istruzione.it,www.icrodari.it,TOEE81304P,44.80871725,7.157888652120645,0
BACCELLI - TIVOLI,SCUOLA PRIMO GRADO,ROMA,TIVOLI,VIA DEI PINI 19,00019,L182,RMIC89300V@istruzione.it,www.istitutobaccellitivoli.it,RMMM89301X,41.955599,12.8016467,0
ARVALIA INFANZIA,SCUOLA INFANZIA,ROMA,ROMA,VIA MONTE DELLE CAPRE 39,00148,H501,RMIC8B800Q@istruzione.it,www.istitutocomprensivogramsci.it,RMAA8B802N,41.8664585,12.477999882906396,1
JACOPO DEL DUCA - DIEGO BIANCA AMATO,ISTITUTO SUPERIORE,PALERMO,CEFALU',VIA PIETRAGROSSA N. 68/70,90015,C421,PAIS02200V@istruzione.it,Non Disponibile,PAIS02200V,38.0313104,14.0188038,0
I.C. PADRE GEMELLI,SCUOLA PRIMARIA,TORINO,TORINO,CORSO LOMBARDIA 98,10151,L219,TOIC873005@istruzione.it,www.padregemelli.it,TOEE873017,45.0960645,7.6473184,0
DON MINZONI-PADERNO DUGNANO,SCUOLA PRIMO GRADO,MILANO,PADERNO DUGNANO,PIAZZA HIROSHIMA 4,20037,G220,MIIC8D800C@istruzione.it,www.icpaderno.gov.it,MIMM8D801D,45.5815891,9.1554011,0
NA IC 23 COLLETTA - BOVIO,SCUOLA PRIMARIA,NAPOLI,NAPOLI,VIA S.GIOVANNI CARBONARA 31,80139,F839,NAIC81000G@istruzione.it,www.boviocolletta.it,NAEE81001N,40.856406199999995,14.262933219240084,1
G.CASIRAGHI CON SEZ.STAC.L.CLAS,LICEO SCIENTIFICO,MILANO,CINISELLO BALSAMO,VIA GORKI 106,20092,C707,MIIS00100B@istruzione.it,www.liceocasiraghi.gov.it,MIPS00101T,45.55844235,9.213580399703329,1
FUCINI - RONCALLI GRAGNANO,SCUOLA PRIMO GRADO,NAPOLI,GRAGNANO,VIA QUARANTOLA 15,80054,E131,NAMM0AZ003@istruzione.it,www.scuolarenatofucini.gov.it,NAMM0AZ003,40.6946668,14.5097856,0
BARAGGIOLE,SCUOLA INFANZIA,MILANO,PADERNO DUGNANO,VIA SONDRIO 32,20037,G220,MIIC8FJ00V@istruzione.it,www.icscroci.it,MIAA8FJ02R,45.5714988,9.195992950508584,0
GIANCARLO VALLAURI,ISTITUTO TECNICO INDUSTRIALE,ROMA,VELLETRI,VIALE SALVO D'ACQUISTO 43,00049,L719,RMTF200009@istruzione.it,www.itisvallauri.gov.it,RMTF200009,41.6740195,12.7755485,0
SAFFI,SCUOLA PRIMARIA,ROMA,ROMA,VIA SARDI 37,00185,H501,RMIC8BK005@istruzione.it,www. borsi-saffi.gov.it,RMEE8BK017,41.8664585,12.477999882906396,1
D.D. A. GABELLI - PA,SCUOLA PRIMARIA,PALERMO,PALERMO,VIA E. L'EMIRO,90135,G273,PAEE019001@istruzione.it,http//www.ddgabelli.gov.it,PAEE019012,45.6791599,13.4026638,1
I.C. CAVOUR,ISTITUTO COMPRENSIVO,TORINO,CAVOUR,PIAZZA S.MARTINO 2,10061,C404,TOIC845001@istruzione.it,Non Disponibile,TOIC845001,42.5690977,11.8183304,1
INDUSTRIALE,SCUOLA INFANZIA,PALERMO,PALERMO,VIA S. ALBERTO DEGLI ABATI,90121,G273,PAIC85200E@istruzione.it,www.icsdivittorio.it,PAAA85202C,45.6791599,13.4026638,1
CONVITTO NAZ.LE LONGONE/ MILANO,SCUOLA PRIMARIA,MILANO,MILANO,VIA DEGLI OLIVETANI9,20123,F205,MIEE30100X@istruzione.it,Non Disponibile,MIEE30100X,45.4667585,9.1904133,1
I.C. CHIERI I - O.LEVI,SCUOLA PRIMO GRADO,TORINO,CHIERI,PIAZZA SILVIO PELLICO 2,10023,C627,TOIC8AV005@istruzione.it,www.chieri1.edu.it,TOMM8AV016,45.01008265,7.821972840619063,0
ISCHIA 1 - GIOVANNI PAOLO II,SCUOLA INFANZIA,NAPOLI,ISCHIA,VIA FONDO BOSSO,80070,E329,NAEE14400N@istruzione.it,www.1circolodidatticoischia.gov. it,NAAA14407Q,40.7270204,13.9467901,0
I.C. CASSINA DE' PECCHI,SCUOLA PRIMARIA,MILANO,CASSINA DE' PECCHI,PIAZZA  UNITA' D'ITALIA,20060,C014,MIIC8BH007@istruzione.it,icscassina.gov.it,MIEE8BH019,45.51715815,9.366026785516935,0
"ITC "" E. DI SAVOIA-DIAZ""-NAPOLI-",ISTITUTO TECNICO COMMERCIALE,NAPOLI,NAPOLI,VIA TRIBUNALI 370,80138,F839,NAIS021006@istruzione.it,Non Disponibile,NATD02102D,40.856406199999995,14.262933219240084,1
SAN GENNARO VES.-CAP-FERROVIA,SCUOLA INFANZIA,NAPOLI,SAN GENNARO VESUVIANO,VIA FERROVIA,80036,H860,NAIC8GK00V@istruzione.it,WWW.ICCAPOLUOGOSANGENNARO.GOV.IT,NAAA8GK02R,40.8661731,14.5386549,0
VILLARICCA 1 - CAPOLUOGO,SCUOLA PRIMARIA,NAPOLI,VILLARICCA,VIA ENRICO FERMI N.43,80010,G309,NAIC8FL004@istruzione.it,www.icsianivillaricca.it,NAEE8FL016,40.9177799,14.1962254,0
LUDOVICO DA CASORIA CASORIA,SCUOLA PRIMO GRADO,NAPOLI,CASORIA,VIA PIO XII N.126,80026,B990,NAIC8ET00D@istruzione.it,primoludovicodacasoria.gov.it,NAMM8ET01E,40.8997867,14.2907446,0
CADLOLO,SCUOLA PRIMARIA,ROMA,ROMA,VIA DELLA RONDINELLA 2,00100,H501,RMIC80600V@istruzione.it,www.icvirgilio.it,RMEE806055,41.9009591,12.4686885,0
"I.S. - ITC - IPC - ""TILGHER""",ISTITUTO SUPERIORE,NAPOLI,ERCOLANO,VIA CASACAMPORA 3,80056,H243,NAIS01100G@istruzione.it,Non Disponibile,NAIS01100G,40.7982607,14.3620169,0
SESTRIERE - VIA FRAITEVE,SCUOLA PRIMO GRADO,TORINO,SESTRIERE,VIA FRAITEVE 1,10058,I692,TOMM180006@istruzione.it,www.desambrois.it,TOMM180017,44.9574896,6.8785983,0
IC PRIMO LEVI/MILANO,ISTITUTO COMPRENSIVO,MILANO,MILANO,VIA PISTOIA 30,20153,F205,MIIC8DS00D@istruzione.it,Non Disponibile,MIIC8DS00D,45.4629616,9.0908558,0
PERCORSO II LIVELLO SANDRO PERTINI,ISTITUTO TECNICO COMMERCIALE,ROMA,ROMA,VIA LENTINI S.N.C.,00136,H501,RMIS10200L@istruzione.it,www.federicocaffe.com,RMTD102518,41.8602618,12.6672539,0
GIUGLIANO 7 SALVAT. DI GIACOMO,SCUOLA PRIMARIA,NAPOLI,GIUGLIANO IN CAMPANIA,VIA BARTOLO LONGO N. 22,80014,E054,NAEE361005@istruzione.it,www.settimocircologiugliano.gov.it,NAEE361016,40.9337376,14.235709940216086,1
T.DEL GRECO ANGIOLETTI-CAMALDOL,SCUOLA PRIMARIA,NAPOLI,TORRE DEL GRECO,VIA CHIAZZOLELLE 1,80059,L259,NAIC8BM00D@istruzione.it,WWW.ANGIOLETTIONLINE.IT,NAEE8BM01G,40.7796195,14.4098792,0
MARANO I.C. DARMON,ISTITUTO COMPRENSIVO,NAPOLI,MARANO DI NAPOLI,VIA SOFFRITTO,80016,E906,NAIC8GJ003@istruzione.it,Non Disponibile,NAIC8GJ003,40.8742043,14.1792133,0
"""LICEO STATALE COMENIO""",ISTITUTO MAGISTRALE,NAPOLI,NAPOLI,VIA SAVERIO GATTO 16/C,80131,F839,NAPM160004@istruzione.it,www.liceocomenio.edu.it,NAPM160004,40.8686858,14.2303256,0
IC. MONCAL. S. PIETRO COLIBRI',SCUOLA INFANZIA,TORINO,MONCALIERI,VIA GALIMBERTI 5,10024,F335,TOIC88900P@istruzione.it,www.istitutocomprensivoborgosanpietro.gov.it,TOAA88903N,44.9956293,7.6967078,1
TOLFA -VIA LIZZERA,SCUOLA INFANZIA,ROMA,TOLFA,VIA LIZZERA 19,00059,L192,RMIC89400P@istruzione.it,www.comprensivotolfa.gov.it,RMAA89402L,42.1464572,11.9283498,0
I.C. VOLVERA - GERBOLE D.MILANI,SCUOLA PRIMARIA,TORINO,VOLVERA,VIA GERBOLE 6,10040,M133,TOIC83800T@istruzione.it,www.icvolvera.gov.it,TOEE838032,44.9826581,7.5191784,0
IST.ISTR.SUP.G.CARDANO,ISTITUTO SUPERIORE,MILANO,MILANO,VIA GIULIO NATTA11,20151,F205,MIIS023008@istruzione.it,Non Disponibile,MIIS023008,45.4667585,9.1904133,1
MONTALE - BOLLATE,SCUOLA PRIMO GRADO,MILANO,BOLLATE,VIA VERDI 23,20021,A940,MIIC8EE00G@istruzione.it,www.ICMONTESSORI.GOV..it,MIMM8EE01L,45.5461925,9.0972271,0
VIA CALIMERA S.N.C.,SCUOLA INFANZIA,ROMA,ROMA,VIA CALIMERA S.N.C.,00133,H501,RMIC8FC003@istruzione.it,www.icviamerope.eu,RMAA8FC043,41.8871972,12.6190562,0
FONTANA DELLE ROSE,SCUOLA PRIMARIA,ROMA,VELLETRI,VIA FONTANA DELLE ROSE 153A,00049,L719,RMIC8D500D@istruzione.it,WWW.IC_VELLETRINORD.GOV.IT,RMEE8D501G,41.7049202,12.7938301,1
BRASILE-SEDE DI VIA LANCIANI,SCUOLA PRIMARIA,ROMA,ROMA,VIA LANCIANI 45,00162,H501,RMIC8EC00C@istruzione.it,www.icpiazzawinckelmann.gov.it,RMEE8EC01E,41.8664585,12.477999882906396,1
I.C. GIUSEPPE VERDI -PA,ISTITUTO COMPRENSIVO,PALERMO,PALERMO,VIA A. CASELLA N. 33/35,90145,G273,PAIC87800P@istruzione.it,Non Disponibile,PAIC87800P,45.6791599,13.4026638,1
SPERONE-PERTINI PLESSO RANDAZZO,SCUOLA PRIMARIA,PALERMO,PALERMO,VIA SPERONE 79,90121,G273,PAIC8AT00X@istruzione.it,www.icssperonepertini.it,PAEE8AT023,38.0994613,13.3986586,0
P.ZZA UNITA D'ITALIA- CERNUSCO,SCUOLA PRIMO GRADO,MILANO,CERNUSCO SUL NAVIGLIO,PIAZZA  UNITA' D'ITALIA 4,20063,C523,MIIC8E400Q@istruzione.it,www.icscernusco.gov.it,MIMM8E401R,45.5244051,9.3334375,0
IC CAPPONI/MILANO,ISTITUTO COMPRENSIVO,MILANO,MILANO,VIA PESTALOZZI 13,20143,F205,MIIC8CY00P@istruzione.it,Non Disponibile,MIIC8CY00P,45.4667585,9.1904133,1
CAVOUR,SCUOLA INFANZIA,NAPOLI,NAPOLI,VIA NICOLARDI 236,80131,F839,NAIC82200T@istruzione.it,www.novarocavour.it,NAAA82202Q,40.8729439,14.2366765,0
NA IC 68 - NUOVI LOCALI,SCUOLA INFANZIA,NAPOLI,NAPOLI,CORSO SIRENA 85 RIONE BISIGNANO,80147,F839,NAIC8C800B@istruzione.it,www.ic68rodino.gov.it,NAAA8C803A,40.856406199999995,14.262933219240084,1
"L.CL.""G.DE BOTTIS""",LICEO CLASSICO,NAPOLI,TORRE DEL GRECO,VIALE CAMPANIA N.4,80059,L259,NAPC060003@istruzione.it,wwwliceoclassicodebottis.it,NAPC060003,40.7801324,14.3798657,0
IIS VINCENZO BENINI SEZ ASSOCIATA OPERA,ISTITUTO TECNICO COMMERCIALE,MILANO,OPERA,CASA DI RECLUSIONE,20090,G078,MIIS02100L@istruzione.it,istitutobenini.eu,MITD02101V,42.4534024,13.5765683,1
ROBERTO ROSSELLINI FORMELLO,SCUOLA PRIMO GRADO,ROMA,FORMELLO,VIA PAOLO BORSELLINO,00060,D707,RMIC88500X@istruzione.it,www.icbarbararizzo.edu.it,RMMM885011,42.0741285,12.395165,0
I.C. CAVOUR - CAP.,SCUOLA PRIMARIA,TORINO,CAVOUR,PIAZZA ALDO MORO 3,10061,C404,TOIC845001@istruzione.it,www.iccavour.it,TOEE845013,42.5690977,11.8183304,1
SANT'ISIDORO,SCUOLA INFANZIA,ROMA,FIUMICINO,VIA CASALE DI CASTELLACCIO SNC,00050,M297,RMIC8DJ006@istruzione.it,WWW.ICMACCARESE.GOV.IT,RMAA8DJ046,41.7675656,12.2339473,1
I.C. MONTANARO -FO -SC.INFANZIA,SCUOLA INFANZIA,TORINO,FOGLIZZO,VIA OLIVERO 25,10090,D646,TOIC852004@istruzione.it,www.icmontanaro.altervista.org/,TOAA852022,45.2732129,7.8216759,0
VIA GUATTARI,SCUOLA INFANZIA,ROMA,ROMA,VIA GUATTARI 55,00176,H501,RMIC8EW00X@istruzione.it,WWW.icferraironi.it,RMAA8EW01R,41.8664585,12.477999882906396,1
BACOLI I.C. 1 DI TARSO CAPOLUO,SCUOLA PRIMARIA,NAPOLI,BACOLI,PIAZZA  MARCONI 188,80070,A535,NAIC8DZ00T@istruzione.it,www.icpaoloditarso.gov.it,NAEE8DZ01X,41.8614091,12.2017776,1
M.L.KING,SCUOLA PRIMARIA,MILANO,MILANO,PIAZZA  SANTA MARIA NASCENTE30,20148,F205,MIIC8C400E@istruzione.it,www.istitutocadorna.it,MIEE8C401L,45.4667585,9.1904133,1
DE SANCTIS,ISTITUTO SUPERIORE,ROMA,ROMA,VIA CASSIA 931,00189,H501,RMIS06200B@istruzione.it,Non Disponibile,RMIS06200B,41.9721161,12.430542125559223,0
PORTICI I.C. 5 S.GIUS. MOSCATI,SCUOLA PRIMARIA,NAPOLI,PORTICI,VIA CAPORTANO,80055,G902,NAIC8FV00Q@istruzione.it,www.iccastaldi.gov.it,NAEE8FV01T,40.8209955,14.3401328,0
L.SC-DI GIACOMO.S.SEB.VESUVIO-,LICEO SCIENTIFICO,NAPOLI,SAN SEBASTIANO AL VESUVIO,VIA FALCONI,80040,I151,NAPS97000L@ISTRUZIONE.IT,www.LICEODIGIACOMO.GOV.IT,NAPS97000L,40.8398431,14.3699183,0
FOSCOLO U.-NAPOLI-,SCUOLA PRIMO GRADO,NAPOLI,NAPOLI,PIAZZA GESU' 2,80134,F839,NAIC8E900C@istruzione.it,www.foscoloberdan.gov.it,NAMM8E901D,40.856406199999995,14.262933219240084,1
F. FERRARA,ISTITUTO TECNICO COMMERCIALE,PALERMO,PALERMO,VIA SGARLATA 11,90133,G273,PAIS02300P@istruzione.it,www.iissfrancescoferrara.it,PATD023011,38.1185234,13.3605542,0
25 APRILE - CORMANO,ISTITUTO COMPRENSIVO,MILANO,CORMANO,VIA MOLINAZZO 35,20032,D013,MIIC8EN00G@istruzione.it,Non Disponibile,MIIC8EN00G,45.543677,9.168282,0
IC PACCHIOTTI-VIA REVEL CHIARA,SCUOLA INFANZIA,TORINO,TORINO,VIA SANTA CHIARA 12,10122,L219,Non Disponibile,http//WWW.SCUOLAFRASSATITORINO.GOV.IT,TOAA8B501L,45.0752996,7.6811238,0
I.C. RIVALTA - TETTI FRANCESI,ISTITUTO COMPRENSIVO,TORINO,RIVALTA DI TORINO,VIA FOSSANO 7,10040,H335,TOIC84000T@istruzione.it,Non Disponibile,TOIC84000T,44.9976524,7.5137618,0
GIUSEPPE LUIGI LAGRANGE,ISTITUTO SUPERIORE,MILANO,MILANO,VIA LITTA MODIGNANI65,20161,F205,MIIS038002@istruzione.it,Non Disponibile,MIIS038002,45.4667585,9.1904133,1
CASORIA IC MITILINI-MADRINATO,SCUOLA PRIMARIA,NAPOLI,CASORIA,VIA PIO XII,80026,B990,NAIC8EU009@istruzione.it,www.icmauromitilini.it,NAEE8EU03D,40.8997867,14.2907446,0
CAPRI I.C. - IV NOVEMBRE,SCUOLA PRIMARIA,NAPOLI,CAPRI,VIA P.S.CIMINO,80073,B696,NAIC8AB007@istruzione.it,www.nievocapri.it,NAEE8AB019,45.1179427,7.3325745,1
VIA GIOVANNI XXIII/FR.GRANCIA P,SCUOLA INFANZIA,MILANO,LAINATE,VIA GIOVANNI XXIII,20020,E415,MIIC8BE00Q@istruzione.it,www.lainate.net/tobagi,MIAA8BE01L,45.5576442,9.0214175,0
IC M.CALDERINI-G.TUCCIMEI,ISTITUTO COMPRENSIVO,ROMA,ROMA,VIA COSTANTINO BESCHI 12,00125,H501,RMIC8BX00R@istruzione.it,Non Disponibile,RMIC8BX00R,41.7855333,12.3683025,0
SANDRO PERTINI,SCUOLA INFANZIA,ROMA,FONTE NUOVA,VIA VINCENZO CUOCO,00013,M309,RMIC87800R@istruzione.it,www.scuolapertini.it,RMAA87801N,42.0006033,12.6244007,0
I.C. CARMAGNOLA I - PRALORMO,SCUOLA PRIMO GRADO,TORINO,PRALORMO,VIA MORBELLI,10040,G979,TOIC8AN005@istruzione.it,htt//www.iccarmagnolaprimo.gov.it,TOMM8AN027,44.8628448,7.8971762,0
"I.C. VENARIA I-""DE AMICIS""",SCUOLA INFANZIA,TORINO,VENARIA REALE,PIAZZA VITTORIO VENETO 2,10078,L727,TOIC8A300D@istruzione.it,www.icvenaria1.gov.it,TOAA8A303C,45.1330116,7.632607161089026,0
NA IC 46 - PLESSO SCIALOJA,SCUOLA PRIMARIA,NAPOLI,NAPOLI,VIA COMUNALE OTTAVIANO 130 BIS,80146,F839,NAIC8EC00D@istruzione.it,WWW.IC46SCIALOIACORTESE.GOV.IT,NAEE8EC02L,40.8414189,14.3039564,0
VIA MANZONI,SCUOLA PRIMARIA,MILANO,PADERNO DUGNANO,VIA MANZONI 31,20030,G220,MIIC8D800C@istruzione.it,www.icpaderno.gov.it,MIEE8D801E,45.5801265,9.1580991,0
G. PASCOLI-SESTO S. GIOVANNI,SCUOLA PRIMARIA,MILANO,SESTO SAN GIOVANNI,VIA MILANO 220,20099,I690,MIIC8A0002@istruzione.it,www.icsestopascoli.gov.it,MIEE8A0014,45.5265391,9.2457928,0
IC GIAVENO GONIN V.GENOLINO 77,SCUOLA INFANZIA,TORINO,GIAVENO,VIA GENOLINO 77,10094,E020,TOIC87000N@istruzione.it,www.icgonin.gov.it,TOAA87001E,45.0401669,7.3425728,0
VIA T. MOMMSEN 20,ISTITUTO COMPRENSIVO,ROMA,ROMA,VIA T. MOMMSEN N. 20,00179,H501,RMIC8CU003@istruzione.it,Non Disponibile,RMIC8CU003,41.8664585,12.477999882906396,1
RUSPOLI,SCUOLA PRIMARIA,ROMA,ROMA,VIA GESU' E MARIA 28,00186,H501,RMIC818005@istruzione.it,www.icvisconti.it,RMEE818017,41.8664585,12.477999882906396,1
I.C. SIDOLI - VIA FLECCHIA,SCUOLA PRIMARIA,TORINO,TORINO,VIA FLECCHIA10,10135,L219,TOIC88200X@istruzione.it,htt//www.icviasidoli.it,TOEE882023,45.3320533,7.2674162,1
VIA FERABOLI,SCUOLA PRIMARIA,MILANO,MILANO,VIA FERABOLI 44,20142,F205,MIIC8FW002@istruzione.it,www.arcadia.gov.it,MIEE8FW036,45.4667585,9.1904133,1
I.C. PIANEZZA M.T. CALCUTTA,SCUOLA INFANZIA,TORINO,PIANEZZA,V. C. PAVESE 11,10044,G559,TOIC89700N@istruzione.it,htt//www.icpianezza.eu,TOAA89704N,45.7169179,8.276400973155479,1
J.VON NEUMANN,ISTITUTO SUPERIORE,ROMA,ROMA,VIA POLLENZA 115,00156,H501,RMIS022001@istruzione.it,www.vonneumann.it,RMIS022001,41.94706465,12.577043470742701,0
I.C. SAN GIORGIO - OZEGNA,SCUOLA INFANZIA,TORINO,OZEGNA,VIA BOARELLI 4,10080,G202,TOIC8BT004@istruzione.it,www.icsangiorgiocanavese.it,TOAA8BT055,45.3493736,7.744317,0
"L.S. "" DI GIACOMO "" SEDE VOLLA",LICEO SCIENTIFICO,NAPOLI,VOLLA,VIA FILICHITO N. 210,80040,M115,NAPS97000L@ISTRUZIONE.IT,www.liceopitagoracroce.gov.it,NAPS97001N,40.8856732,14.3519443,0
I.C. ANTONIO GRAMSCI,ISTITUTO COMPRENSIVO,ROMA,ROMA,VIA AFFOGALASINO 120,00148,H501,RMIC8B800Q@istruzione.it,Non Disponibile,RMIC8B800Q,41.8664585,12.477999882906396,1
VIA DOMIZIA LUCILLA,ISTITUTO SUPERIORE,ROMA,ROMA,SEDE LEGALE V.CESARE LOMBROSO 118,00168,H501,RMIS06100G@istruzione.it,Non Disponibile,RMIS06100G,41.8664585,12.477999882906396,1
TECNICO,ISTITUTO TECNICO COMMERCIALE,ROMA,ROMA,VIA SANTA MARIA ALLE FORNACI 1,00165,H501,RMIS118006@istruzione.it,www.luigieinaudiroma.gov.it,RMTD11801C,41.8664585,12.477999882906396,1
G.CASIRAGHI,LICEO CLASSICO,MILANO,CINISELLO BALSAMO,VIA GORKI106,20092,C707,MIIS00100B@istruzione.it,www.liceocasiraghi.gov.it,MIPC00101P,45.55844235,9.213580399703329,1
BLAISE PASCAL,ISTITUTO SUPERIORE,ROMA,POMEZIA,VIA PIETRO NENNI 48,00071,G811,RMIS064003@istruzione.it,Non Disponibile,RMIS064003,41.6596594,12.5011302,0
"""SANDRO PERTINI""",SCUOLA PRIMARIA,MILANO,MILANO,VIA SALERNO 3,20142,F205,MIIC8DZ008@istruzione.it,www.icilariaalpi.gov.it,MIEE8DZ01A,45.4373792,9.1487974,0
NA IC 6 FAVA-GIOIA PLESSO GIOIA,SCUOLA PRIMARIA,NAPOLI,NAPOLI,SALITA SAN RAFFAELE 59,80136,F839,NAIC85200N@istruzione.it,www.favagioia.it,NAEE85202R,40.854417,14.2455808,0
MANZONI -CASSANO D'ADDA-,SCUOLA PRIMO GRADO,MILANO,CASSANO D'ADDA,VIA LEONARDO DA VINCI 2,20062,C003,MIIC8CC00P@istruzione.it,www.icqdivona,MIMM8CC01Q,45.5269466,9.5033712,0
T.GRECO I.C. 2 MORELLI SAURO,SCUOLA INFANZIA,NAPOLI,TORRE DEL GRECO,VIA CIRCUMVALLAZIONE,80059,L259,NAIC8CN00X@istruzione.it,www.IC2SAURO-MORELLI.GOV.IT,NAAA8CN01R,40.7845899,14.3756555,0
VIA F. MEATTINI,SCUOLA INFANZIA,ROMA,ROMA,VIA F. MEATTINI,00173,H501,RMIC8GA002@istruzione.it,www.icstabilini.it,RMAA8GA01V,41.8664585,12.477999882906396,1
I.C. VENARIA I,SCUOLA INFANZIA,TORINO,VENARIA REALE,VIA PAGANELLI 44,10078,L727,TOIC8A300D@istruzione.it,www.icvenaria1.gov.it,TOAA8A301A,45.11517325,7.6399299,0
"L.CL. "" SENIORE"" SS. DI AGEROLA",LICEO CLASSICO,NAPOLI,AGEROLA,Non Disponibile,Non Disponibile,A068,NAPC350003@istruzione.it,www.plinioseniore.com,NAPC350014,40.63791055,14.54492618153591,1
"IST.TEC.STAT.PER RAG.""CATTANEO""",ISTITUTO TECNICO COMMERCIALE,MILANO,MILANO,PIAZZA DELLA VETRA 9,20123,F205,MIIS00400V@istruzione.it,www.iiscattaneomilano.gov.it,MITD004015,45.4667585,9.1904133,1
I.C. PINEROLO II - LAURO,SCUOLA PRIMARIA,TORINO,PINEROLO,VIA BATTITORE ANG. VIA GIUSTETTO,10064,G674,TOIC8BJ00C@istruzione.it,www.icpinerolo2.gov.it,TOEE8BJ01E,44.882003499999996,7.334099642186448,1
VALMONTONE - COLLE S. GIOVANNI,SCUOLA INFANZIA,ROMA,VALMONTONE,VIA COLLE APRANO,00038,L639,RMIC8CF00P@istruzione.it,www.madreteresadicalcutta.gov.it,RMAA8CF02L,41.7631579,12.9149763,0
CASOLA IC - V. CAPPELLANO,SCUOLA PRIMARIA,NAPOLI,CASOLA DI NAPOLI,VIA ROMA,80050,B980,NAIC8AG00A@istruzione.it,http//www.istitutocomprensivocasola.it/,NAEE8AG02D,40.6968125,14.5382407,0
S.A. LIC.SCIENT.I.S. TILGHER-ERCOLANO-,LICEO SCIENTIFICO,NAPOLI,ERCOLANO,VIA CASACAMPORA 3 - VIA MARITTIMA 3,80056,H243,NAIS01100G@istruzione.it,www.adrianotilgher.edu.it,NAPS011012,40.8250786,14.3549039,1
ALBANO - VIA CANCELLIERA,SCUOLA INFANZIA,ROMA,ALBANO LAZIALE,VIA PANTANELLE,00040,A132,RMIC8AX006@istruzione.it,www.icalbanopavona.gov.it,RMAA8AX013,41.6977282,12.6241702,0
LETTERE - ORSANO,SCUOLA PRIMARIA,NAPOLI,LETTERE,VIA NUOVA ORSANO 5,80050,E557,NAIC8AS00A@istruzione.it,www.icspellicolettere.gov.it,NAEE8AS02D,40.7054094,14.5507101,0
MARGHERITA HACK,ISTITUTO COMPRENSIVO,MILANO,CERNUSCO SUL NAVIGLIO,PIAZZA UNITA D'ITALIA 4,20063,C523,MIIC8E400Q@istruzione.it,Non Disponibile,MIIC8E400Q,45.5244051,9.3334375,0
I.C. MARGHERITA HACK,ISTITUTO COMPRENSIVO,MILANO,SAN DONATO MILANESE,VIA CROCE ROSSA 4,20097,H827,MIIC8FB00P@istruzione.it,Non Disponibile,MIIC8FB00P,45.4118011,9.2700375,0
PALOMBARA CRETONE,SCUOLA INFANZIA,ROMA,PALOMBARA SABINA,VIA A. MANZONI SNC,00018,G293,RMIC8AK00E@istruzione.it,www.icpalombarasabina.gov.it,RMAA8AK01B,42.06661375,12.765030882951802,1
MOLINO VECCHIO - GORGONZOLA,SCUOLA PRIMO GRADO,MILANO,GORGONZOLA,VIA UMBRIA,20064,E094,MIIC8E600B@istruzione.it,www.scuolamolinovecchio.gov.it,MIMM8E601C,45.531589,9.4138469,0
CIVITAVECCHIA - VIA PAPACCHINI,SCUOLA INFANZIA,ROMA,CIVITAVECCHIA,VIA MONS. PAPACCHINI,00053,C773,RMIC8B900G@istruzione.it,www.icgalicecivitavecchia.edu.it,RMAA8B902D,41.8118482,12.3177862,1
SCUOLA PRIMARIA DOMENICO MORO,SCUOLA PRIMARIA,MILANO,MILANO,VIA PESCARENICO 6,20142,F205,MIIC8CY00P@istruzione.it,www.icscapponi.it,MIEE8CY02T,45.433107,9.1724751,0
MANLIO BATTISTINI,SCUOLA PRIMARIA,ROMA,SAN POLO DEI CAVALIERI,VIA I MAGGIO SNC,00010,I125,RMIC89300V@istruzione.it,www.istitutobaccellitivoli.it,RMEE893022,42.01245215,12.839954383021382,1
"I.C. PIANEZZA - ""RAPELLI""",SCUOLA INFANZIA,TORINO,PIANEZZA,VIA MUSINE' 26,10044,G559,TOIC89700N@istruzione.it,htt//www.icpianezza.eu,TOAA89701E,45.1087333,7.5419456,0
I.C. PARRI - VIA VENARIA,SCUOLA INFANZIA,TORINO,TORINO,VIA VENARIA 79/15,10148,L219,TOIC8BR003@ISTRUZIONE.IT,Non Disponibile,TOAA8BR021,45.1061409,7.6628662,0
NA - I.C. 68 RODINO',ISTITUTO COMPRENSIVO,NAPOLI,NAPOLI,VIA CICCARELLI 11,80147,F839,NAIC8C800B@istruzione.it,Non Disponibile,NAIC8C800B,40.8453268,14.3198933,0
I.T. COMM. E GEOM. DI VIA NATTA,IST TEC COMMERCIALE E PER GEOMETRI,MILANO,MILANO,VIA NATTA11,20151,F205,MIIS023008@istruzione.it,www.iiscardano.gov.it,MITD02301E,45.4667585,9.1904133,1
CASORIA 4 IC PUCCINI CIMILIARCO,SCUOLA PRIMARIA,NAPOLI,CASORIA,VIA NAZIONALE DELLE PUGLIE,80026,B990,NAIC8ES00N@istruzione.it,WWW.ICPUCCINI4CD.GOV.IT,NAEE8ES03T,40.8876526,14.3211798,0
NA 84 - ANTONIO DE CURTIS,SCUOLA PRIMARIA,NAPOLI,NAPOLI,VIA CAMALDOLILLI N 25,80131,F839,NAEE084007@istruzione.it,www.84crcoloeamario.it,NAEE084029,40.858321,14.2107135,0
VIA CONCESIO,SCUOLA PRIMARIA,ROMA,ROMA,VIA CONCESIO 2,00188,H501,RMIC8AG009@istruzione.it,www.istitutocomprensivoKarolWojtyla.it,RMEE8AG01B,42.0031315,12.4858303,0
BIAGIO PASCAL,ISTITUTO TECNICO INDUSTRIALE,ROMA,ROMA,VIA BREMBIO 97,00188,H501,RMTF330002@istruzione.it,www.itispascal.it,RMTF330002,41.99621675,12.487513499969577,0
SCUOLA MATERNA PASCOLI,SCUOLA INFANZIA,PALERMO,PALERMO,PIAZZA ZISA 21,90135,G273,PAEE019001@istruzione.it,www.ddgabelli.gov.it,PAAA01903V,38.1157823,13.341109,0
GRAMSCI-IMPASTATO GIUGLIANO,SCUOLA PRIMO GRADO,NAPOLI,GIUGLIANO IN CAMPANIA,VIA BARTOLO LONGO 20,80014,E054,NAMM0AY007@istruzione.it,http//www.scuolaimpastato.gov.it,NAMM0AY007,40.9337376,14.235709940216086,1
I.C. SUSA,ISTITUTO COMPRENSIVO,TORINO,SUSA,PIAZZA SAVOIA 21,10059,L013,TOIC880008@istruzione.it,Non Disponibile,TOIC880008,45.1376796,7.0434225,0
CARDITO I.C. 2 DON BOSCO,ISTITUTO COMPRENSIVO,NAPOLI,CARDITO,VIA TAVERNA,80024,B759,NAIC8GM00E@istruzione.it,Non Disponibile,NAIC8GM00E,42.4941913,13.4565298,1
IC CROCI - PADERNO DUGNANO,ISTITUTO COMPRENSIVO,MILANO,PADERNO DUGNANO,VIA CHOPIN 9,20037,G220,MIIC8FJ00V@istruzione.it,Non Disponibile,MIIC8FJ00V,45.568595900000005,9.165960184874644,1
T.GRECO IC FALCONE - CONTE,SCUOLA PRIMARIA,NAPOLI,TORRE DEL GRECO,VIA S.MARIA LA BRUNA 148,80059,L259,NAIC8DF00A@istruzione.it,www.icfalconescauda.it,NAEE8DF01C,40.7892102,14.360048171045122,1
I.C. CHIERI I - PELLICO,SCUOLA PRIMARIA,TORINO,CHIERI,PIAZZA PELLICO 6,10023,C627,TOIC8AV005@istruzione.it,www.chieri1.edu.it,TOEE8AV017,45.0132565,7.821071607666887,1
ISTITUTO SUPERIORE DANILO DOLCI,ISTITUTO SUPERIORE,PALERMO,PARTINICO,VIA GOFFREDO MAMELI N. 4,90047,G348,PAIS021003@istruzione.it,Non Disponibile,PAIS021003,38.0493437,13.127962,0
UMBERTO I,CONVITTO NAZIONALE,TORINO,TORINO,VIA BLIGNY 1 BIS,10122,L219,TOVC01000Q@istruzione.it,Non Disponibile,TOVC01000Q,45.0748161,7.6761052,0
QUARTO II CRISCI,SCUOLA INFANZIA,NAPOLI,QUARTO,CRISCI,80010,H114,NAEE23600G@istruzione.it,www.direzionedidatticaquarto2.it,NAAA23604E,40.8995414,14.122413,1
LICEO SCIENZE APPLICATE,LICEO SCIENTIFICO,ROMA,ROMA,Non Disponibile,Non Disponibile,H501,RMIS10200L@istruzione.it,www.liceofrancescodassisi.gov.it,RMPS102013,41.8664585,12.477999882906396,1
GIUGLIANO 7 - BARTOLO LONGO,SCUOLA INFANZIA,NAPOLI,GIUGLIANO IN CAMPANIA,VIA S.GIULIANO,80014,E054,NAEE361005@istruzione.it,www.settimocircologiugliano.gov.it,NAAA361022,40.936322,14.2082904,0
T.GRECO IC ANGIOLETTI-PADRI RED,SCUOLA PRIMARIA,NAPOLI,TORRE DEL GRECO,VIA GIOVANNI XXIII 22,80059,L259,NAIC8BM00D@istruzione.it,www.angiolettionline.it,NAEE8BM02L,40.77153915,14.407157101013436,0
DIR.DID 1 DI TORRE ANN.TA,CENTRO TERRITORIALE,NAPOLI,TORRE ANNUNZIATA,VIA CAVOUR N. 26,80058,L245,NAMM0CS00D@istruzione.it,Non Disponibile,NACT71300X,40.7562163,14.4579383,0
S. SEVERA NORD,SCUOLA INFANZIA,ROMA,TOLFA,PIAZZA  S. PERTINI 1,00050,L192,RMIC89400P@istruzione.it,www.comprensivotolfa.gov.it,RMAA89403N,42.149322100000006,11.937735290069103,1
REP.ONC.UNIV.LA SAPIENZA,SCUOLA PRIMARIA,ROMA,ROMA,VIALE  R.ELENA 324,00161,H501,RMIC8BK005@istruzione.it,Non Disponibile,RMEE8BK06C,41.8664585,12.477999882906396,1
ROBBIOLO,SCUOLA INFANZIA,MILANO,BUCCINASCO,VIA ALDO MORO 14,20090,B240,MIIC8EF00B@istruzione.it,www.icspadrepinopuglisi.edu.it,MIAA8EF018,45.4187831,9.12719415188407,0
NA - I.C. 12 FOSCOLO-OBERDAN,ISTITUTO COMPRENSIVO,NAPOLI,NAPOLI,PIAZZA DEL GESU'NUOVO N.2,80134,F839,NAIC8E900C@istruzione.it,Non Disponibile,NAIC8E900C,40.856406199999995,14.262933219240084,1
IS DON MILANI SERALE,ISTITUTO MAGISTRALE,NAPOLI,NAPOLI,Non Disponibile,Non Disponibile,F839,NAPM10000C@istruzione.it,www.donmilaninapoli.gov.it,NAPM10050T,40.856406199999995,14.262933219240084,1
G. BASILE,SCUOLA PRIMARIA,ROMA,ROMA,VIA MEROPE 24,00133,H501,RMIC8FC003@istruzione.it,www.icviamerope.gov.it,RMEE8FC015,41.8738638,12.6160507,0
"""AURELIO MARIANI""",SCUOLA PRIMO GRADO,ROMA,VELLETRI,VIA FONTANA DELLA ROSA 159,00049,L719,RMIC8D500D@istruzione.it,WWW.IC_VELLETRINORD.GOV.IT,RMMM8D501E,41.6927456,12.7719824,0
NA - I.C. 61 SAURO-ERRICO-PASCO,ISTITUTO COMPRENSIVO,NAPOLI,NAPOLI,VIALE DELLE GALASSIE 2,80144,F839,NAIC8B900L@istruzione.it,Non Disponibile,NAIC8B900L,40.8899377,14.2689344,0
C.D.COLLEGNO III- CALVINO,SCUOLA PRIMARIA,TORINO,COLLEGNO,VIALE DEI PARTIGIANI 36,10093,C860,TOEE10500D@istruzione.it,www.scuolecollegno3.it,TOEE10504N,45.0914983,7.571510839201665,0
BACOLI I.C. 1 DI TARSO BAIA,SCUOLA INFANZIA,NAPOLI,BACOLI,VIA LUCULLO 102,80070,A535,NAIC8DZ00T@istruzione.it,www.icpaoloditarso.gov.it,NAAA8DZ03R,40.8148237,14.0726501,0
"SMS ""J.J. WINCKELMANN""",SCUOLA PRIMO GRADO,ROMA,ROMA,PIAZZA WINCKELMANN 20,00162,H501,RMIC8EC00C@istruzione.it,www.icpiazzawinckelmann.gov.it,RMMM8EC01D,41.8664585,12.477999882906396,1
DON IONTA - SEGNI,SCUOLA PRIMO GRADO,ROMA,SEGNI,PIAZZA RISORGIMENTO 27,00037,I573,RMIC8AZ00T@istruzione.it,www.comprensivosegni.gov.it,RMMM8AZ01V,44.13410535,11.16351409242269,1
VIA POPPEA SABINA,SCUOLA PRIMO GRADO,ROMA,ROMA,VIA RATTO DELLE SABINE 3,00131,H501,RMIC8G800R@istruzione.it,WWW.IC.SANTAPROCULA.GOV.IT,RMMM8G801T,41.9451147,12.600197,0
PERCORSO II LIV. SEZ CARC J. VON NEUMANN,ISTITUTO TECNICO INDUSTRIALE,ROMA,ROMA,C.C. REBIBBIA,00156,H501,RMIS022001@istruzione.it,info@vonneumann.it,RMTF02201D,41.8664585,12.477999882906396,1
LICEO STATALE ANTONIO GENOVESI,LICEO CLASSICO,NAPOLI,NAPOLI,PIAZZA DEL GESU' NUOVO 1,80134,F839,NAPC010002@istruzione.it,www.liceogenovesi.gov.it,NAPC010002,40.84688495,14.251632153972214,0
VILLANOVA-OSPEDALE-PAUSILIPON,SCUOLA INFANZIA,NAPOLI,NAPOLI,Non Disponibile,Non Disponibile,F839,NAIC8C9007@istruzione.it,www.3circoloportici.it,NAAA8C9025,40.856406199999995,14.262933219240084,1
VINCENZO BENINI,ISTITUTO SUPERIORE,MILANO,MELEGNANO,VIALE PREDABISSI 3,20077,F100,MIIS02100L@istruzione.it,www.istitutobenini.eu,MIIS02100L,43.620489649999996,10.633351575333917,1
POZZUOLI 1 - G. MARCONI,SCUOLA PRIMARIA,NAPOLI,POZZUOLI,VIALE CAPOMAZZA 1,80078,G964,NAEE16600E@istruzione.it,Non Disponibile,NAEE16600E,40.8225853,14.1233034,0
GIANNI RODARI,SCUOLA PRIMARIA,ROMA,FORMELLO,VIA UMBERTO I 3,00060,D707,RMIC88500X@istruzione.it,www.icbarbararizzo.edu.it,RMEE885012,42.0797744,12.400975963721226,1
IC MACCARESE,ISTITUTO COMPRENSIVO,ROMA,FIUMICINO,VIALE CASTEL S. GIORGIO 205,00054,M297,RMIC8DJ006@istruzione.it,Non Disponibile,RMIC8DJ006,41.876595800000004,12.223789665444393,0
"IPSSEOA "" TELESE"" SERALE",IST PROF PER I SERVIZI ALBERGHIERI E RISTORAZIONE,NAPOLI,ISCHIA,Non Disponibile,Non Disponibile,E329,NARH04000P@istruzione.it,www.ipsteleseischia.gov.it,NARH040504,42.98901385,13.86806715,1
I.C. MONTANARO - FOGLIZZO,SCUOLA PRIMO GRADO,TORINO,FOGLIZZO,VIA OLIVERO 21,10090,D646,TOIC852004@istruzione.it,www.icmontanaro.altervista.org,TOMM852026,45.2731348,7.821256,0
MASIH IQBAL,SCUOLA PRIMARIA,ROMA,ROMA,VIA FERRAIRONI 38,00172,H501,RMIC8EW00X@istruzione.it,www.icferraironi.it,RMEE8EW012,41.8664585,12.477999882906396,1
M.PICONE,ISTITUTO TECNICO COMMERCIALE,PALERMO,PRIZZI,CONTRADA  CATUSI,90038,H070,PAIS01100C@istruzione.it,www.iisslercarafriddi.it,PATD011503,37.721659700000004,13.431564058963481,1
RICCI,SCUOLA PRIMO GRADO,MILANO,MILANO,VIA LOVERE 4,20148,F205,MIIC8C400E@istruzione.it,www.istitutocadorna.it,MIMM8C401G,45.4849198,9.1393604,0
TIVOLI I - VILLA BRASCHI,SCUOLA INFANZIA,ROMA,TIVOLI,VIA DI VILLA BRASCHI,00019,L182,RMIC8F600E@istruzione.it,www.tivoliuno.gov.it,RMAA8F601B,41.9544295,12.7936795,0
PORTICI IC 5 -V.NAPOLI- TIZIANO,SCUOLA INFANZIA,NAPOLI,PORTICI,VIA POLI - V.TIZIANO 24,80055,G902,NAIC8FV00Q@istruzione.it,WWW.ICSANTAGATAMOSCATI.ALTERVISTA.ORG,NAAA8FV03P,40.816953,14.3339057,1
VERDI,SCUOLA PRIMARIA,ROMA,ROMA,VIA GELA 22,00182,H501,RMIC8CU003@istruzione.it,www.mommsen.edu.it,RMEE8CU026,41.87853,12.520192,0
IC PIAZZA DAMIANO SAULI,ISTITUTO COMPRENSIVO,ROMA,ROMA,PIAZZA DAMIANO SAULI1,00154,H501,RMIC8FE00P@istruzione.it,Non Disponibile,RMIC8FE00P,41.8664585,12.477999882906396,1
IC PACCHIOTTI-VIA REVEL NETRO,SCUOLA PRIMARIA,TORINO,TORINO,VIA VALFRE' 8,10121,L219,TOIC8B500Q@istruzione.it,http//WWW.ICALVAROGOBETTI.EDU.IT,TOEE8B502V,45.0706072,7.671076,0
I.C.RIVALTA T.FRANCESI MUNARI,SCUOLA INFANZIA,TORINO,RIVALTA DI TORINO,VIA LAMARMORA 4,10040,H335,TOIC84000T@istruzione.it,www.ictettifrancesi.it,TOAA84001P,45.0031133,7.5047945,0
REGINA MARGHERITA,SCUOLA INFANZIA,ROMA,ROMA,VIA MADONNA DELL'ORTO 2,00153,H501,RMIC80800E@istruzione.it,www.scuolareginamargherita.it,RMAA80801B,41.8664585,12.477999882906396,1
I.C. MANTEGNA /BONANNO -PA,ISTITUTO COMPRENSIVO,PALERMO,PALERMO,VIA BOLOGNI 4,90136,G273,PAIC85300A@istruzione.it,Non Disponibile,PAIC85300A,38.1115755,13.3084092,0
D'ACQUISTO - T.COLONNA,SCUOLA PRIMO GRADO,PALERMO,PALERMO,LARGO CAVALIERI DI MALTA 9,90133,G273,PAIC8AB004@istruzione.it,www.ICRITAATRIA.IT,PAMM8AB015,38.120234,13.3640838,0
VIA CAIROLI - LAINATE,SCUOLA PRIMARIA,MILANO,LAINATE,VIA CAIROLI 33,20020,E415,MIIC8BE00Q@istruzione.it,www.lainate.net/tobagi,MIEE8BE01T,45.569836,9.0272003,1
IACCARINO - ERCOLANO,SCUOLA PRIMO GRADO,NAPOLI,ERCOLANO,VIA DOGLIE N.20,80056,H243,NAMM27100T@istruzione.it,www.scuolamediaiaccarino.gov.it,NAMM27100T,40.8021468,14.3613271,0
U. NISTRI,SCUOLA PRIMO GRADO,ROMA,ROMA,VIA A. RENZINI 50,00128,H501,RMIC8FH006@istruzione.it,www.icviafrignani.it,RMMM8FH017,41.8664585,12.477999882906396,1
IC COLLEGNO-PARADISO - V.CRIMEA,SCUOLA INFANZIA,TORINO,COLLEGNO,VIA CRIMEA 51,10097,C860,TOIC85900V@istruzione.it,www.scuoleparadiso.it,TOAA85904V,45.0719967,7.5965448,0
BERTRAND RUSSELL,LICEO SCIENTIFICO,MILANO,MILANO,VIA FRANCESCO GATTI 16,20162,F205,MIIS03900T@istruzione.it,www.iis-russell.gov.it,MIPS039018,45.5064503,9.1911141,0
SANDRO PERTINI,ISTITUTO COMPRENSIVO,ROMA,FONTE NUOVA,VIA VINCENZO CUOCO 63,00013,M309,RMIC87800R@istruzione.it,Non Disponibile,RMIC87800R,42.0020299,12.623463263148302,0
IC MATTEOTTI-RIGNON - CARDUCCI,SCUOLA PRIMARIA,TORINO,TORINO,CORSO MATTEOTTI 6,10121,L219,TOIC8B400X@istruzione.it,http//WWW.ICALVAROGOBETTI.EDU.IT,TOEE8B4023,44.8471327,7.7259726,0
CAP. POLIZZI,SCUOLA INFANZIA,PALERMO,PARTINICO,PIAZZA POETESSA BONURA 2,90047,G348,PAIC8A7007@istruzione.it,www.icpriviterapolizi.it,PAAA8A7014,38.044048,13.1175753,0
GIULIO SARTORIO = LERCARA F.,SCUOLA INFANZIA,PALERMO,LERCARA FRIDDI,CORSO GIULIO SARTORIO N. 58,90025,E541,PAIC81600B@istruzione.it,www.iclercarafriddi.edu.it,PAAA816029,37.7469871,13.6024827,0
LIVIO BASSI,SCUOLA PRIMARIA,PALERMO,PALERMO,VIA CASALINI,90135,G273,PAIC87100X@istruzione.it,www.scuolabuonarroti-gov.it,PAEE871023,38.1262125,13.3134954,0
IC G.PASCOLI/SESTO S.GIOVANNI,ISTITUTO COMPRENSIVO,MILANO,SESTO SAN GIOVANNI,VIA FRATELLI DI DIO 101,20099,I690,MIIC8A0002@istruzione.it,Non Disponibile,MIIC8A0002,45.524846100000005,9.249032098030714,0
PIERO DELLA FRANCESCA,SCUOLA PRIMARIA,ROMA,ROMA,VIA T. SIGNORINI 78/VIA O. AMATO 65,00125,H501,RMIC8BX00R@istruzione.it,www.viabeschi.gov.it,RMEE8BX034,41.8664585,12.477999882906396,1
"""ANTONINO AGOSTINO""",SCUOLA INFANZIA,PALERMO,PALERMO,VIA SACCO E VANZETTI 42,90121,G273,PAIC8AT00X@istruzione.it,www.icssperonepertini.it,PAAA8AT01R,38.0977977,13.4097697,0
GIANTURCO,SCUOLA PRIMARIA,ROMA,ROMA,VIA DELLA PALOMBELLA 4,00186,H501,RMIC818005@istruzione.it,www.icvisconti.it,RMEE818028,41.8981889,12.4765215,0
VIA BOLIVIA/FRAZ.PALAZZOLO,SCUOLA INFANZIA,MILANO,PADERNO DUGNANO,VIA BOLIVIA 37,20030,G220,MIIC8D800C@istruzione.it,www.icpaderno.gov.it,MIAA8D8019,45.5781523,9.1561958,0
"""A.MANZONI"" - RESCALDINA",SCUOLA PRIMARIA,MILANO,RESCALDINA,VIA ASILO 2,20027,H240,MIIC849008@istruzione.it,www.comprensivomanzoni.it,MIEE84901A,45.63173365,8.9417145756078,0
ITI R.ELIA- C/MMARE-,ISTITUTO TECNICO INDUSTRIALE,NAPOLI,CASTELLAMMARE DI STABIA,VIA ANNUNZIATELLA 55/C,80053,C129,NATF10000D@istruzione.it,www.itielia.it,NATF10000D,40.7121484,14.4892046,0
I.I.S CURIE-VITTORINI,LICEO SCIENTIFICO,TORINO,GRUGLIASCO,C. ALLAMANO130 GRUGLIASCO (TO),10095,E216,TOIS03400P@istruzione.it,www.liceomcurie.gov.it,TOPS034015,45.06237125,7.577498496457702,1
GIORDANO BRUNO,ISTITUTO MAGISTRALE,ROMA,ROMA,VIA DELLA BUFALOTTA 594,00139,H501,RMPM12000L@istruzione.it,www.liceogiordanobrunoroma.it,RMPM12000L,41.9502057,12.5415063,0
MONTE DI PROCIDA CAPOLUOGO,SCUOLA INFANZIA,NAPOLI,MONTE DI PROCIDA,VIA TORRIONE,80070,F488,NAEE150001@istruzione.it,http//www.circolodidatticomontediprocida.com/,NAAA15001R,40.7929183,14.0463155,0
I.C. REGINA MARGHERITA,ISTITUTO COMPRENSIVO,ROMA,ROMA,VIA MADONNA DELL'ORTO 2,00100,H501,RMIC80800E@istruzione.it,Non Disponibile,RMIC80800E,41.8664585,12.477999882906396,1
LUIGI CALAMATTA,ISTITUTO SUPERIORE,ROMA,CIVITAVECCHIA,VIA A.DA SANGALLO 3,00053,C773,RMIS06600P@istruzione.it,Non Disponibile,RMIS06600P,41.8118482,12.3177862,1
VIA ROMANA 11/13,ISTITUTO SUPERIORE,ROMA,CIAMPINO,VIA ROMANA 11/13,00043,M272,RMIS09600E@istruzione.it,Non Disponibile,RMIS09600E,41.779879,12.6366525,0
NA - I.C. 06 FAVA-GIOIA,ISTITUTO COMPRENSIVO,NAPOLI,NAPOLI,VICO TRONE 14/B,80136,F839,NAIC85200N@istruzione.it,Non Disponibile,NAIC85200N,40.8559693,14.2383335,0
NA IC - ISES INFANZIA,SCUOLA INFANZIA,NAPOLI,NAPOLI,VIA MONTE ROSA 149,80144,F839,NAIC8CM004@istruzione.it,http//www.ic58jfkennedy.gov.it/,NAAA8CM033,40.9006483,14.2504155,0
PERCORSO II LIV SEZ CARC DOMIZIA LUCILLA,IST PROF PER I SERVIZI ALBERGHIERI E RISTORAZIONE,ROMA,ROMA,SEZIONE CARCERARIA IS. PENALE CASAL DEL MARMO,Non Disponibile,H501,RMIS06100G@ISTRUZIONE.IT,www.domizialucilla.com,RMRH06102R,41.8664585,12.477999882906396,1
CARLO CATTANEO,ISTITUTO SUPERIORE,MILANO,MILANO,PIAZZA DELLA VETRA 9,20123,F205,MIIS00400V@istruzione.it,Non Disponibile,MIIS00400V,45.4667585,9.1904133,1
TIVOLI - S. POLO SCALO,SCUOLA PRIMARIA,ROMA,TIVOLI,VIA DEI PLATANI SNC,00019,L182,RMIC89300V@istruzione.it,www.istitutobaccellitivoli.it,RMEE893011,41.9723644,12.8301502,0
I.C. PINEROLO II - SAN SECONDO,SCUOLA PRIMO GRADO,TORINO,SAN SECONDO DI PINEROLO,VIA DELLA REPUBBLICA 1,10060,I154,TOIC8BJ00C@istruzione.it,http//http//www.icpinerolo2.gov.it,TOMM8BJ01D,44.8677553,7.30169921969253,0
ARVALIA,SCUOLA PRIMARIA,ROMA,ROMA,VIA MONTE DELLE CAPRE 39,00148,H501,RMIC8B800Q@istruzione.it,www.istitutocomprensivogramsci.it,RMEE8B8041,41.8664585,12.477999882906396,1
ANDREA BOLTAR,SCUOLA PRIMARIA,ROMA,ROMA,PIAZZA  LODOVICO CERVA 45,00143,H501,RMIC86100B@istruzione.it,www.icmontanelli.gov.it,RMEE86101D,41.8168007,12.489597,0
I.C. IVREA I - VIA L. S.MICHELE,SCUOLA INFANZIA,TORINO,IVREA,VIA LAGO S.MICHELE,10015,E379,TOIC8AA00T@istruzione.it,icivrea1.gov.it,TOAA8AA02Q,45.4708527,7.8881053,0
CASOLA IC - PLESSO CAPOLUOGO,SCUOLA PRIMARIA,NAPOLI,CASOLA DI NAPOLI,VIA ROMA,80050,B980,NAIC8AG00A@istruzione.it,http//www.icraffaeleiozzino.gov.it/,NAEE8AG01C,40.6968125,14.5382407,0
I.C. CASTIGLIONE - FERMI,SCUOLA PRIMO GRADO,TORINO,CASTIGLIONE TORINESE,VIA DON BROVERO 11,10090,C307,TOIC85000C@istruzione.it,www.ic-castiglionetorinese.it,TOMM85002E,45.120515,7.8167545,0
LETTERE S.LORENZO,SCUOLA INFANZIA,NAPOLI,LETTERE,VIA S.LORENZO 9,80050,E557,NAIC8AS00A@istruzione.it,www.icspellicolettere.gov.it,NAAA8AS04A,40.7029561,14.5469551,0
"LICEO CLASSICO STATALE ""PLINIO SENIORE""",LICEO CLASSICO,NAPOLI,CASTELLAMMARE DI STABIA,VIA NOCERA 87,80053,C129,NAPC350003@istruzione.it,www.plinioseniore.com,NAPC350003,40.6974292,14.4839783,0
"""ENNIO QUIRINO VISCONTI""",ISTITUTO COMPRENSIVO,ROMA,ROMA,VIA DELLA PALOMBELLA 4,00186,H501,RMIC818005@istruzione.it,Non Disponibile,RMIC818005,41.8981889,12.4765215,0
GALILEI - SAN DONATO MILANESE,SCUOLA PRIMO GRADO,MILANO,SAN DONATO MILANESE,VIA CROCE ROSSA 4,20097,H827,MIIC8FB00P@istruzione.it,http//www.icsmargheritahacksandonatomi.gov.it/,MIMM8FB01Q,45.4118011,9.2700375,0
PALOMBARA SABINA C.U.,SCUOLA PRIMARIA,ROMA,PALOMBARA SABINA,VIA RISORGIMENTO SNC,00018,G293,RMIC8AK00E@istruzione.it,www.icpalombarasabina.gov.it,RMEE8AK03A,42.0698996,12.7638065,0
VALMONTONE - C.SO GARIBALDI,SCUOLA PRIMARIA,ROMA,VALMONTONE,CORSO  GARIBALDI 38,00038,L639,RMIC8CF00P@istruzione.it,www.madreteresacalcutta.gov.it,RMEE8CF01R,41.7750884,12.9194719,0
PISTELLI,SCUOLA PRIMARIA,ROMA,ROMA,VIA MONTEZEBIO 35,00195,H501,RMIC8GW005@istruzione.it,www.icclaudioabbado.gov.it,RMEE8GW017,41.8664585,12.477999882906396,1
SCUOLA PRIMARIA GINO CAPPONI,SCUOLA PRIMARIA,MILANO,MILANO,VIA PESTALOZZI 13,20143,F205,MIIC8CY00P@istruzione.it,www.icscapponi.it,MIEE8CY01R,45.4667585,9.1904133,1
VILLARICCA - I.C. CALVINO,ISTITUTO COMPRENSIVO,NAPOLI,VILLARICCA,VIA BOLOGNA 57,80010,G309,NAIC885001@istruzione.it,Non Disponibile,NAIC885001,40.8995414,14.122413,1
SMS RODINO'- CD 68?NAPOLI,SCUOLA PRIMO GRADO,NAPOLI,NAPOLI,VIA MASTELLONE - BARRA,80147,F839,NAIC8C800B@istruzione.it,www.cd68caruso.altervista.org,NAMM8C801C,40.8446154,14.3282615,0
G.OBERDAN E C.A.PORZI,SCUOLA PRIMARIA,MILANO,MILANO,VIA BERGOGNONE 2 /4,20144,F205,MIIC8FX00T@istruzione.it,WWW.icsmoiseloria.gov.it,MIEE8FX01X,45.4566795,9.1619853,0
S. M. S. PUCCINI CASORIA,SCUOLA PRIMO GRADO,NAPOLI,CASORIA,VIA GIOTTO 19,80026,B990,NAIC8ES00N@istruzione.it,WWW.ICPUCCINI4CD.GOV.IT,NAMM8ES01P,40.9052651,14.2892207,1
I. C. KAROL WOJTYLA,ISTITUTO COMPRENSIVO,ROMA,ROMA,VIA CONCESIO 2,00188,H501,RMIC8AG009@istruzione.it,Non Disponibile,RMIC8AG009,42.0031315,12.4858303,0
II POLICLINICO - SEZ. OSPEDALIERA-NAPOLI,LICEO CLASSICO,NAPOLI,NAPOLI,Non Disponibile,Non Disponibile,F839,NAPC09000V@istruzione.it,Non Disponibile,NAPC09001X,40.856406199999995,14.262933219240084,1
LIC. ART. NITTI PORTICI,LICEO ARTISTICO,NAPOLI,PORTICI,CORSO GARIBALDI 254 INGRESSO VIA SCALEA N. 30,80055,G902,NAIS10200N@istruzione.it,www.nittiportici.gov.it,NASL102011,40.816953,14.3339057,1
NA 84 - E. A. MARIO -,SCUOLA INFANZIA,NAPOLI,NAPOLI,VIA UMBERTO IMPROTA PREFETTO,80131,F839,NAEE084007@istruzione.it,www.84circoloeamario.it,NAAA084013,40.856406199999995,14.262933219240084,1
CARDITO I.C. EX CASA DEL FANCIU,SCUOLA PRIMO GRADO,NAPOLI,CARDITO,VIALE KENNEDY,80024,B759,NAIC8GM00E@istruzione.it,www.cardito2icdonbosco.gov.it,NAMM8GM01G,42.4941913,13.4565298,1
IC S.GIUSEPPE CALASANZIO/MILANO,ISTITUTO COMPRENSIVO,MILANO,MILANO,PIAZZA AXUM 5,20148,F205,MIIC8C500A@istruzione.it,Non Disponibile,MIIC8C500A,45.4760537,9.1238655,0
"S.S.I? ""R. SCAUDA""",SCUOLA PRIMO GRADO,NAPOLI,TORRE DEL GRECO,VIA PINETA DEL SANTUARIO 1,80059,L259,NAIC8DF00A@istruzione.it,www.icfalconescauda.it,NAMM8DF01B,40.76391115,14.417706817157569,0
"IST. TUR. ""DE SANCTIS"" SERALE",ISTITUTO TECNICO PER IL TURISMO,NAPOLI,NAPOLI,Non Disponibile,Non Disponibile,F839,NAIS133009@istruzione.it,www.giustinofortunatonapoli.it,NATN13351V,40.856406199999995,14.262933219240084,1
SMS AMALFI-MASSA PIANO SORRENTO,SCUOLA PRIMO GRADO,NAPOLI,PIANO DI SORRENTO,VIA F.CIAMPA 54,80063,G568,NAIC8BN009@istruzione.it,http//www.icpianodisorrento.gov.it,NAMM8BN01A,40.6325905,14.4117405,1
PAOLO BORSELLINO = LERCARA F.,SCUOLA INFANZIA,PALERMO,LERCARA FRIDDI,PIAZZA INDIPENDENZA N. 1,90025,E541,PAIC81600B@istruzione.it,www.iclercarafriddi.edu.it,PAAA816018,37.7489506,13.5990442,0
DIEGO BIANCA AMATO,ISTITUTO D'ARTE,PALERMO,CAMPOFELICE DI ROCCELLA,VIALE FRANCIA,90010,B532,PAIS02200V@istruzione.it,www.delduca-biancaamato.it,PASD02201Q,37.9862315,13.8838253,0
C. GRASSI,ISTITUTO TECNICO INDUSTRIALE,TORINO,TORINO,VIA VERONESE 305,10148,L219,TOTF14000A@istruzione.it,http//www.itisgrassi.it,TOTF14000A,45.1083144,7.6765919,0
COLLE OTTONE,SCUOLA PRIMARIA,ROMA,VELLETRI,VIA APPIA VECCHIA 139,00049,L719,RMIC8D500D@istruzione.it,WWW.IC_VELLETRINORD.GOV.IT,RMEE8D502L,41.6862299,12.7480644,0
RANCILIO - PARABIAGO,SCUOLA PRIMO GRADO,MILANO,PARABIAGO,VIA PASCOLI 26,20015,G324,MIIC8FH00N@istruzione.it,www.icmanzoniparabiago.it,MIMM8FH01P,45.5568552,8.9503528,1
"I.C.S. ""GIUSEPPE VERDI""",SCUOLA INFANZIA,PALERMO,PALERMO,VIA BERNABEI N. 28/B,90145,G273,PAIC87800P@istruzione.it,www.icsverdi.it,PAAA87801G,45.6791599,13.4026638,1
TRINACRIA = GARZILLI,SCUOLA INFANZIA,PALERMO,PALERMO,VIA TRINACRIA 1,90144,G273,PAEE020005@istruzione.it,www.cdgarzilli.gov.it,PAAA020066,38.1505439,13.3378504,0
I.C. ANTONELLI-CASALEGNO,ISTITUTO COMPRENSIVO,TORINO,TORINO,VIA L. LANFRANCO 2 (EX V. FILADELFIA),10137,L219,TOIC8BZ003@istruzione.it,Non Disponibile,TOIC8BZ003,45.3320533,7.2674162,1
SPERONE PERTINI PLESSO PERTINI,SCUOLA PRIMARIA,PALERMO,PALERMO,VIA FELICE CAVALLOTTI 1,90121,G273,PAIC8AT00X@istruzione.it,www.icssperonepertini.it,PAEE8AT034,37.6807467,13.377523,0
VIA A.DANTE,SCUOLA INFANZIA,MILANO,CERNUSCO SUL NAVIGLIO,VIA A.DANTE,20063,C523,MIIC8E400Q@istruzione.it,http//www.icscernusco.gov.it,MIAA8E401L,45.5248037,9.3307133,1
I.C. CHIERI I,ISTITUTO COMPRENSIVO,TORINO,CHIERI,PIAZZA PELLICO 6,10023,C627,TOIC8AV005@istruzione.it,Non Disponibile,TOIC8AV005,45.0132565,7.821071607666887,1
DE FILIPPO-VICO C/O OSPEDALE,SCUOLA PRIMO GRADO,NAPOLI,ARZANO,VIA DEL CENTENARIO 10,80022,A455,NAIC8EG00R@istruzione.it,www.3circoloportici.it,NAMM8EG02V,40.9083387,14.272128,0
V. ALFIERI,SCUOLA PRIMO GRADO,ROMA,ROMA,VIA SALARIA 159,00198,H501,RMIC8BL001@istruzione.it,www.alfierilantedellarovere.it,RMMM8BL012,41.9195328,12.4985167,0
SEGNI - PANTANO,SCUOLA PRIMARIA,ROMA,SEGNI,CONTRADA LA MOLA,00037,I573,RMIC8AZ00T@istruzione.it,www.comprensivosegni.it,RMEE8AZ021,44.13410535,11.16351409242269,1
VELLETRI - IQBAL MASIQ,SCUOLA INFANZIA,ROMA,VELLETRI,VIALE ALDO MORO,00049,L719,RMIC8F700A@istruzione.it,www.ginofelci.it,RMAA8F7039,41.6909693,12.7889321,0
TURRISI COLONNA G.,SCUOLA INFANZIA,PALERMO,PALERMO,PIAZZA GRAN CANCELLIERE,90134,G273,PAIC8AB004@istruzione.it,www.ICRITAATRIA.IT,PAAA8AB022,38.1162668,13.3592269,0
I.C.TORRE PELLICE-VILLAR PELLIC,SCUOLA INFANZIA,TORINO,VILLAR PELLICE,VIALE  PRIMO MAGGIO,10060,M013,TOIC81300D@istruzione.it,www.icrodari.it,TOAA81303C,44.8084709,7.1577511,0
ABBA - ALIGHIERI,SCUOLA PRIMO GRADO,PALERMO,PALERMO,VIA RUGGERO MARTURANO N.77/79,90142,G273,PAIC89900Q@istruzione.it,www.abbaalighieri.it,PAMM89901R,45.6791599,13.4026638,1
VOLLA IC 2 - VIA NAPOLI,SCUOLA INFANZIA,NAPOLI,VOLLA,VIA NAPOLI,80040,M115,NAIC8B800R@istruzione.it,www.icsangiovanniboscovolla.gov.it,NAAA8B801N,40.8787747,14.3371848,0
VIA GIUSTINIANA,SCUOLA INFANZIA,ROMA,ROMA,VIA GIUSTINIANA,00188,H501,RMIC8AG009@istruzione.it,www.istitutocomprensivokarolwojtyla.it,RMAA8AG016,41.8664585,12.477999882906396,1
"S.S.I? ""DON G. RUSSOLILLO""",SCUOLA PRIMO GRADO,NAPOLI,NAPOLI,VIA EVANGELISTA TORRICELLI,80126,F839,NAIC8CU004@istruzione.it,www.icrussolillo.gov.it,NAMM8CU015,40.8617441,14.1716361,0
"IPSAR ""I. CAVALCANTI"" NAPOLI",IST PROF PER I SERVIZI ALBERGHIERI E RISTORAZIONE,NAPOLI,NAPOLI,SEDE AMM/VA VIA TAVERNA DEL FERRO 4,80146,F839,NARH01000V@istruzione.it,www.ipssarcavalcanti.it,NARH01000V,40.856406199999995,14.262933219240084,1
"SCUOLA PRIMARIA ""KAROL WOJTYLA",SCUOLA PRIMARIA,MILANO,GARBAGNATE MILANESE,LARGO MONS. GERVASONI 1,20024,D912,MIIC8EK004@istruzione.it,www.icwojtylagarbagnate.it,MIEE8EK016,45.5763812,9.0791045,1
AFRAGOLA III,SCUOLA INFANZIA,NAPOLI,AFRAGOLA,VIA UGO LA MALFA,80021,A064,NAEE105003@istruzione.it,www.aldomorocd.gov.it,NAAA105031,40.9196814,14.2959901,0
I.C.SETTIMO VITTONE-CAREMA,SCUOLA PRIMARIA,TORINO,CAREMA,VIA S. MATTEO 4,10010,B762,TOIC849008@istruzione.it,WWW.ICSETTIMOVITTONE,TOEE84903C,45.5830124,7.8128743,0
IC MATTEOTTI - RIGNON COPPINO,SCUOLA PRIMARIA,TORINO,TORINO,VIA MASSENA 39,10128,L219,TOIC8B400X@istruzione.it,http//WWW.ICALVAROGOBETTI.EDU.IT,TOEE8B4012,45.3320533,7.2674162,1
F. FERRARA,IST PROF PER I SERVIZI COMMERCIALI,PALERMO,PALERMO,VIA SGARLATA 11,90133,G273,PAIS02300P@istruzione.it,www.iissfrancescoferrara.it,PARC02301N,38.1185234,13.3605542,0
LIVIO BASSI,SCUOLA INFANZIA,PALERMO,PALERMO,VIA CASALINI 65,90135,G273,PAIC87100X@istruzione.it,www.ICSBUONARROTI.GOV.IT,PAAA87101R,38.1262125,13.3134954,0
COLLEGNO III - DON MILANI,SCUOLA INFANZIA,TORINO,COLLEGNO,PIAZZA NERUDA 9/BIS,10093,C860,TOEE10500D@istruzione.it,www.scuolecollegno3.it,TOAA10506E,45.0789548,7.5683123,0
I.C. LUSERNA S.G. - DE AMICIS,SCUOLA PRIMO GRADO,TORINO,LUSERNA SAN GIOVANNI,VIA MARCONI 1,10062,E758,TOIC843009@istruzione.it,http//icdeamicis-luserna.it,TOMM84301A,44.8162339,7.2465147,0
I.C.GRUGLIASCO 66 M.-D'ACQUISTO,SCUOLA PRIMARIA,TORINO,GRUGLIASCO,VIA GEN. PEROTTI 85,10095,E216,TOIC86200P@istruzione.it,www.ic66martirigrugliasco.edu.it,TOEE86201R,45.06237125,7.577498496457702,1
NA IC 18 - G. ARCOLEO,SCUOLA PRIMARIA,NAPOLI,NAPOLI,VIA A. DE GASPERIS 11,80137,F839,NAIC8BX001@istruzione.it,www.volinocroce.it,NAEE8BX046,40.856406199999995,14.262933219240084,1
IPSSAR ALIA,IST PROF ALBERGHIERO,PALERMO,ALIA,C/DA CHIANCHITELLO,90021,A195,PAIS01100C@istruzione.it,http//www.ipssarborsellino.com,PARH01101L,41.7963591,12.2549019,1
BONANNO G.,SCUOLA PRIMARIA,PALERMO,PALERMO,VIA G.PITRE' 183,90135,G273,PAIC85300A@istruzione.it,www.icsmantegnabonanno.gov.it,PAEE85303E,45.6791599,13.4026638,1
IC. MONCALIERI -NASI-CALVINO,SCUOLA PRIMARIA,TORINO,MONCALIERI,VIA PANNUNZIO 11 (ZONA NASI),10024,F335,TOIC887003@istruzione.it,htt//www.icnasi.it,TOEE887026,44.9956293,7.6967078,1
"I.C. GIAVENO - ""F. GONIN""",ISTITUTO COMPRENSIVO,TORINO,GIAVENO,VIA DON POGOLOTTO 45,10094,E020,TOIC87000N@istruzione.it,Non Disponibile,TOIC87000N,45.040646,7.3506239,0
VINCENZO BENINI,ISTITUTO TECNICO COMMERCIALE,MILANO,MELEGNANO,VIALE PREDABISSI 3,20077,F100,MIIS02100L@istruzione.it,istitutobenini.eu,MITD02102X,43.620489649999996,10.633351575333917,1
ALESSANDRA D'ANGELO,SCUOLA PRIMARIA,ROMA,FIUMICINO,LARGO CARLO FORMICHI 9,00050,M297,RMIC8DJ006@istruzione.it,WWW.ICMACCARESE.GOV.IT,RMEE8DJ03A,41.9624326,12.2854985,0
VIA T. MOMMSEN 20,SCUOLA PRIMO GRADO,ROMA,ROMA,VIA T. MOMMSEN 20,00179,H501,RMIC8CU003@istruzione.it,www.mommsen.gov.it,RMMM8CU014,41.8664585,12.477999882906396,1
SETTEMBRINI,SCUOLA PRIMARIA,ROMA,ROMA,VIA DEL LAVATORE 38,00186,H501,RMIC818005@istruzione.it,www.icvisconti.it,RMEE818039,41.9010112,12.4841591,0
I.C. PINEROLO III - COLLODI,SCUOLA PRIMARIA,TORINO,PINEROLO,VIALE KENNEDY 24,10064,G674,TOIC8BP00B@istruzione.it,http//www.SCUOLAPOETPINEROLO.GOV.IT,TOEE8BP01D,44.8883891,7.3446043,0
VARSAVIA,SCUOLA PRIMARIA,ROMA,LADISPOLI,VIA VARSAVIA 5,00055,M212,RMIC8CJ00G@istruzione.it,www.scuolailariaalpi.gov.it,RMEE8CJ02P,41.9581146,12.0927968,0
GIANICOLO,SCUOLA PRIMO GRADO,ROMA,ROMA,LARGO A. ORIANI 1,00152,H501,RMIC8FT003@istruzione.it,www.iclargooriani.gov.it,RMMM8FT014,41.8664585,12.477999882906396,1
SEGNI - FONTANELLE,SCUOLA INFANZIA,ROMA,SEGNI,VIA DELLA MOLA,00037,I573,RMIC8AZ00T@istruzione.it,www.comprensivosegni.it,RMAA8AZ01P,41.7366826,13.0434367,0
PERC. II LIV. VON NEUMANN,ISTITUTO TECNICO INDUSTRIALE,ROMA,ROMA,VIA POLLENZA 115,00156,H501,Non Disponibile,www.vonneumann.gov.it,RMTF02250T,41.94706465,12.577043470742701,0
NA - I.C. VIVIANI,ISTITUTO COMPRENSIVO,NAPOLI,NAPOLI,VIA MANZONI 175,80123,F839,NAIC8C9007@istruzione.it,Non Disponibile,NAIC8C9007,40.8074043,14.1932121,0
I.C. SETTIMO II -RONCALLI,SCUOLA PRIMARIA,TORINO,SETTIMO TORINESE,VIA CUNEO 1,10036,I703,TOIC8BA00C@istruzione.it,www.icsettimosecondo.it,TOEE8BA01E,45.1306239,7.7597802,0
CESARE SCURATI,SCUOLA INFANZIA,MILANO,ABBIATEGRASSO,VIA GALIMBERTI,20081,A010,MIIC8E7007@istruzione.it,www.icvialegnanoabbiategrasso@gov.it,MIAA8E7014,45.38748055,8.883532731815627,1
LICEO SCIENTIFICO L. LONGONE,LICEO SCIENTIFICO,MILANO,MILANO,VIA OLIVETANI 9,20123,F205,MIPS67000C@istruzione.it,www.convittolongone.gov.it,MIPS67000C,45.4667585,9.1904133,1
ROCCARAINOLA VIA SASSO,SCUOLA INFANZIA,NAPOLI,ROCCARAINOLA,VIA CIRCUMVALLAZIONE,80030,H433,NAIC8FX00B@istruzione.it,www.istitutocomprensivoroccarainola.gov.it,NAAA8FX04B,40.976754,14.5393862,0
SMS BELVEDERE DI NAPOLI,CENTRO TERRITORIALE,NAPOLI,NAPOLI,VIA BELVEDERE,80127,F839,NAMM0CP00L@istruzione.it,Non Disponibile,NACT718003,40.8423817,14.2247123,0
PIAZZA 5 GIORNATE,SCUOLA INFANZIA,MILANO,SOLARO,PIAZZA 5 GIORNATE,20020,I786,MIIC83300P@istruzione.it,www.icsolaro.it,MIAA83301G,45.4884127,12.250145232225565,1
SECONDARIA I GRADO,SCUOLA PRIMO GRADO,ROMA,RIGNANO FLAMINIO,VIA SAN ROCCO 66,00068,H288,RMIC877001@istruzione.it,WWW.OLGAROVERE.COM,RMMM877012,42.208683,12.4797478,0
BLAISE PASCAL- INDIRIZZO CLASSICO,LICEO CLASSICO,ROMA,POMEZIA,VIA PIETRO NENNI 48,00040,G811,RMIS064003@istruzione.it,www.liceoblaisepascal.it,RMPC06401A,41.6596594,12.5011302,0
TITO LIVIO,LICEO CLASSICO,MILANO,MILANO,VIA CIRCO 4,20123,F205,MIPC20000G@istruzione.it,www.titolivio.it,MIPC20000G,45.4616498,9.1807728,0
"""LEONARDO DA VINCI"" - NAPOLI",ISTITUTO TECNICO INDUSTRIALE,NAPOLI,NAPOLI,VIA FOGGIA 37,80143,F839,NATF07000V@istruzione.it,itidavinci.it,NATF07000V,40.8581882,14.2754148,0
QUINT. DI VONA-CASSANO D'ADDA,SCUOLA PRIMARIA,MILANO,CASSANO D'ADDA,VIA QUINTINO DI VONA,20062,C003,MIIC8CC00P@istruzione.it,www.icqdivona.it,MIEE8CC01R,45.5253397,9.5163661,0
S.ANTONIO ABATE CASA RUSSO,SCUOLA PRIMARIA,NAPOLI,SANT'ANTONIO ABATE,VIA CASA RUSSO 5,80057,I300,NAEE183008@istruzione.it,Non Disponibile,NAEE18303B,40.728401,14.5587495,0
"I.T.I.S. "" G. MOSCATI """,ISTITUTO TECNICO INDUSTRIALE,NAPOLI,SANT'ANTIMO,VIA SOLIMENA 44,80029,I293,NAIS077006@istruzione.it,www.ismoscati.edu.it,NATF07701P,40.9337376,14.235709940216086,1
LICEO STATALE - ISCHIA,LICEO CLASSICO,NAPOLI,ISCHIA,VIA DELLE GINESTRE N. 39,80077,E329,NAPC22000A@istruzione.it,www.liceoischia.gov.it,NAPC22000A,40.7324058,13.9447849,0
CIAMPINO II - ALBERT SABIN,SCUOLA PRIMARIA,ROMA,CIAMPINO,VIA DELL'ACQUA ACETOSA,00043,M272,RMEE22100R@istruzione.it,www.2circolodidatticodiciampino.it,RMEE221041,41.7926893,12.6203911,0
"LICEO ARTISTICO ""P. MERCURI"" - MARINO",ISTITUTO D'ARTE,ROMA,MARINO,CORSO VITTORIA COLONNA 53,00047,E958,RMIS09600E@istruzione.it,www.iisviaromana.gov.it.it,RMSD09601B,41.7738215,12.6762544,0
FRAZ POASCO,SCUOLA PRIMARIA,MILANO,SAN DONATO MILANESE,VIA UNICA POASCO 1,20097,H827,Non Disponibile,www.icscrocerossa.it,MIEE8FB02T,45.4014878,9.2306986,0
I.C. SAN GIORGIO - SAN GIUSTO,SCUOLA PRIMO GRADO,TORINO,SAN GIUSTO CANAVESE,VIA IV NOVEMBRE 2,10090,H936,TOIC8BT004@istruzione.it,www.icsangiorgiocanavese.it,TOMM8BT026,45.3165011,7.8091205,0
I.C. SAN GIORGIO - OZEGNA,SCUOLA PRIMARIA,TORINO,OZEGNA,VIA SAN ROCCO 10,10080,G202,TOIC8BT004@istruzione.it,http//www.scuola-parri-to.gov.it/,TOEE8BT07C,45.3474063,7.7465602,0
POLICLINICO UMBERTO I,SCUOLA INFANZIA,ROMA,ROMA,VIA TIBURTINA ANTICA25,00162,H501,RMIC8BK005@istruzione.it,Non Disponibile,RMAA8BK012,41.8664585,12.477999882906396,1
COLLODI,SCUOLA PRIMARIA,ROMA,ROMA,VIA MASSA MARITTIMA 1,00148,H501,RMIC8B800Q@istruzione.it,www.istitutocomprensivogramsci.it,RMEE8B802V,41.8419939,12.437569,0
VIA DEI CORAZZIERI,SCUOLA INFANZIA,ROMA,ROMA,VIA DEI CORAZZIERI 110,00143,H501,RMIC86100B@istruzione.it,www.icmontanelli.gov.it,RMAA861029,41.8250005,12.4859245,0
VIA PUGLIE,SCUOLA PRIMARIA,MILANO,MILANO,VIA PUGLIE 4,20139,F205,MIIC8DU005@istruzione.it,www.icpezzani.it,MIEE8DU028,45.4452727,9.2241345,0
I.C. IVREA I - CASCINETTE,SCUOLA INFANZIA,TORINO,CASCINETTE D'IVREA,VIA P. CROTTA,10010,B953,TOIC8AA00T@istruzione.it,icivrea1.gov.it,TOAA8AA03R,45.4767093,7.9009683,0
GERONIMO STILTON,SCUOLA PRIMARIA,ROMA,ROMA,LARGO F. BIGNOTTI 11,00144,H501,RMIC8FJ00B@istruzione.it,www.icfiumegiallo.gov,RMEE8FJ02E,41.8664585,12.477999882906396,1
CASORIA 4 - P.CO FONTANA,SCUOLA INFANZIA,NAPOLI,CASORIA,VIA GARIBALDI,80026,B990,NAIC8ES00N@istruzione.it,WWW.ICPUCCINI4CD.GOV.IT,NAAA8ES01E,40.9052651,14.2892207,1
GIOVANNI XXIII,SCUOLA PRIMO GRADO,ROMA,ROMA,VIALE  MEDAGLIE D'ORO 419/G,00136,H501,RMIC8GW005@istruzione.it,www.icclaudioabbado.gov.it,RMMM8GW016,41.8664585,12.477999882906396,1
PERC. I LIV. IPSEOA,IST PROF PER I SERVIZI ALBERGHIERI E RISTORAZIONE,ROMA,ROMA,VIA CESARE LOMBROSO 118,00168,H501,Non Disponibile,www.domizialucilla.com,RMRH061504,41.9343355,12.41450894276642,0
CARCERE SECONDIGLIANO,SCUOLA PRIMO GRADO,NAPOLI,NAPOLI,Non Disponibile,Non Disponibile,F839,NAMM0CP00L@istruzione.it,Non Disponibile,NAMM721016,40.856406199999995,14.262933219240084,1
VILLARICCA I.C.,SCUOLA PRIMARIA,NAPOLI,VILLARICCA,VIA BOLOGNA 57,80100,G309,NAIC885001@istruzione.it,www.calvinovillaricca.it,NAEE885024,40.8995414,14.122413,1
TERESINA RIVA/TRUCCAZZANO,SCUOLA INFANZIA,MILANO,TRUCCAZZANO,VIA S. QUASIMODO,20060,L454,MIIC8B500Q@istruzione.it,www.pozzuoloscuole.it,MIAA8B503P,45.4835686,9.4689918,1
SMS D. MORELLI-TORRE DEL GRECO,SCUOLA PRIMO GRADO,NAPOLI,TORRE DEL GRECO,VIA CAVALLERIZZI 14BIS,80059,L259,NAIC8CN00X@istruzione.it,WWW.IC2SAUROMORELLI.GOV.IT,NAMM8CN011,40.7860752,14.3746167,0
L.CLAS.VICO DI NAPOLI,LICEO CLASSICO,NAPOLI,NAPOLI,VIA SALVATOR ROSA 117,80136,F839,NAPC09000V@istruzione.it,http//www.liceoviconapoli.gov.it/scuole-napoli/,NAPC09000V,40.8524959,14.2441125,0
CALDERARA,SCUOLA INFANZIA,MILANO,PADERNO DUGNANO,VIA VIVALDI 26,20037,G220,MIIC8FJ00V@istruzione.it,www.icscroci.it,MIAA8FJ01Q,45.568595900000005,9.165960184874644,1
IC ANTONELLI CASALEGNO-ANTONELL,SCUOLA PRIMO GRADO,TORINO,TORINO,VIA L. LANFRANCO 2 (EX V. FILADELFIA),10137,L219,TOIC8BZ003@istruzione.it,http//www.mediantonelli.gov.it/,TOMM8BZ014,45.3320533,7.2674162,1
I.C. CHIERI I -N.SIG. SCALA,SCUOLA PRIMARIA,TORINO,CHIERI,VIA N.S. DELLA SCALA 77,10023,C627,TOIC8AV005@istruzione.it,www.chieri1.edu.it,TOEE8AV028,45.0132565,7.821071607666887,1
"IC C.SO VERCELLI ""E. LUZZATI""",SCUOLA INFANZIA,TORINO,TORINO,VIA RONDISSONE 32,10155,L219,Non Disponibile,http//WWW.SCUOLAFRASSATITORINO.GOV.IT,TOAA8B7018,45.0973032,7.6905262,0
LABICO - C.U.,SCUOLA INFANZIA,ROMA,LABICO,VIA FICORONI,00030,E392,RMIC8CE00V@istruzione.it,www.scuolalabico.it,RMAA8CE01Q,41.7868823,12.8838355,0
I.C. RIVOLI - MATTEOTTI,ISTITUTO COMPRENSIVO,TORINO,RIVOLI,VIA MONTE BIANCO 23,10098,H355,TOIC87100D@istruzione.it,Non Disponibile,TOIC87100D,45.072456599999995,7.504257543745698,0
"ITLL ""CRISTOFARO MENNELLA""",ISTITUTO TECNICO NAUTICO,NAPOLI,FORIO,VIA MATTEO VERDE10,80075,D702,NAIS01200B@istruzione.it,www.ismennellaischia.gov.it,NATH01202C,40.7298256,13.857514,1
"I. S ."" NITTI"" PORTICI",ISTITUTO SUPERIORE,NAPOLI,PORTICI,CORSO GARIBALDI 254 - INGRESSO VIA SCALEA 30,80055,G902,NAIS10200N@istruzione.it,Non Disponibile,NAIS10200N,40.816953,14.3339057,1
"IPC(CS) ""F. DE SANCTIS"" -NAPOLI-",IST PROF PER I SERVIZI COMMERCIALI E TURISTICI,NAPOLI,NAPOLI,PIAZZA S.MARIA IN PORTICO 23,80122,F839,NAIS133009@istruzione.it,www.giudtinofortunatonapoli.it,NARC13351N,40.856406199999995,14.262933219240084,1
P.SORRENTO I.C. - FERD.GARGIULO,SCUOLA PRIMARIA,NAPOLI,PIANO DI SORRENTO,VIA C.AMALFI 19,80063,G568,NAIC8BN009@istruzione.it,http//www.icpianodisorrento.gov.it,NAEE8BN01B,40.6325905,14.4117405,1
CARLO URBANI,SCUOLA PRIMO GRADO,ROMA,ROMA,VIA CENEDA 26 E VIA CAMILLA 75,00183,H501,RMIC8GE009@istruzione.it,www.istitutocomprensivoceneda.it,RMMM8GE01A,41.8664585,12.477999882906396,1
"LICEO SCIENTIFICO STATALE ""S.CANNIZZARO""",LICEO SCIENTIFICO,PALERMO,PALERMO,VIA GEN. ARIMONDI 14,90143,G273,PAPS02000L@istruzione.it,www.cannizzaro.gov.it,PAPS02000L,45.6791599,13.4026638,1
NEGRI,SCUOLA PRIMO GRADO,MILANO,MILANO,PIAZZA AXUM 5,20148,F205,MIIC8C500A@istruzione.it,www.istitutocalasanzio.it,MIMM8C501B,45.4760537,9.1238655,0
I.S.I.S. A. BERNOCCHI,ISTITUTO SUPERIORE,MILANO,LEGNANO,VIA DIAZ 2,20025,E514,MIIS09700T@istruzione.it,Non Disponibile,MIIS09700T,45.5765986,8.916676523110112,1
COLLE PETRONE,SCUOLA INFANZIA,ROMA,VELLETRI,VIA FONTANA FIUME S.N.C.,00049,L719,RMIC8D500D@istruzione.it,WWW.IC_VELLETRINORD.GOV.IT,RMAA8D504D,41.7040744,12.7482311,0
DOMENICO PURIFICATO,ISTITUTO COMPRENSIVO,ROMA,ROMA,VIA DELLA FONTE MERAVIGLIOSA 79,00143,H501,RMIC869002@istruzione.it,Non Disponibile,RMIC869002,41.8267641,12.5081844,0
"IC ""ARTEMISIA GENTILESCHI""",ISTITUTO COMPRENSIVO,ROMA,ROMA,VIA DEI GLICINI 60,00172,H501,RMIC8CC007@istruzione.it,Non Disponibile,RMIC8CC007,41.8794814,12.5680211,0
SEGNI C.U. - T. FALASCA,SCUOLA PRIMARIA,ROMA,SEGNI,VIA G. MARCONI 15,00037,I573,RMIC8AZ00T@istruzione.it,www.comprensivosegni.it,RMEE8AZ01X,44.13410535,11.16351409242269,1
VIA POPPEA SABINA,ISTITUTO COMPRENSIVO,ROMA,ROMA,VIA RATTO DELLE SABINE 3,00131,H501,RMIC8G800R@istruzione.it,Non Disponibile,RMIC8G800R,41.9451147,12.600197,0
PORTICI IC 1 - DON BOSCO,SCUOLA PRIMARIA,NAPOLI,PORTICI,VIA ROMA 32,80055,G902,NAIC8CA00L@istruzione.it,www.ic1donboscomelloni.gov.it,NAEE8CA01P,40.8178127,14.3340698,0
ALIGHIERI -LEGNANO-,SCUOLA PRIMO GRADO,MILANO,LEGNANO,VIA ROBINO 25,20025,E514,MIIC85500G@istruzione.it,www.icsviadeisalici.it,MIMM85501L,45.5765986,8.916676523110112,1
I.C.MAURO MITILINI,SCUOLA INFANZIA,NAPOLI,CASORIA,VIA PIO XII,80026,B990,NAIC8EU009@istruzione.it,www.icmauromitilini.it,NAAA8EU016,40.8997867,14.2907446,0
"I.C.S. ""GIUSEPPE VERDI""",SCUOLA PRIMO GRADO,PALERMO,PALERMO,VIA E. FERMI N. 2,90145,G273,PAIC87800P@istruzione.it,icsverdi.it,PAMM87801Q,45.6791599,13.4026638,1
C.T. PERTINI,CENTRO TERRITORIALE,PALERMO,PALERMO,VIA CAVALLOTTI N.11,90100,G273,PAMM15700G@istruzione.it,Non Disponibile,PACT70200A,38.0803493,13.5113502,0
"PERCORSO II LIV. SEZ CARC ""G. BACCELLI""",IST TEC COMMERCIALE E PER GEOMETRI,ROMA,CIVITAVECCHIA,VIA LEOPOLI 16,00053,C773,RMIS04600D@istruzione.it,Non Disponibile,RMTD04602R,42.094722,11.7975543,0
I.C. ABBA - ALIGHIERI,SCUOLA PRIMARIA,PALERMO,PALERMO,VIA GIORDANO CALCEDONIO 1,90142,G273,PAIC89900Q@istruzione.it,www.abbaalighieri.it,PAEE89901T,38.1420054,13.3664431,0
CONVITTO PER SORDOMUTI,CONVITTO NAZIONALE,ROMA,ROMA,VICOLO DEL CASALE LUMBROSO 129,00166,H501,RMVC060009@istruzione.it,Non Disponibile,RMVC060009,41.8666798,12.372833925111099,0
NA IC DON G. RUSSOLILLO PRIM,SCUOLA PRIMARIA,NAPOLI,NAPOLI,CORSO DUCA D'AOSTA 78,80126,F839,NAIC8CU004@istruzione.it,icrussolillo.gov,NAEE8CU027,40.86102,14.1719832,0
NA IC NOVARO,SCUOLA PRIMARIA,NAPOLI,NAPOLI,VIA S. ANTONIO A CAPODIMONTE 46,80131,F839,NAIC82200T@istruzione.it,www.novarocavour.it,NAEE822021,40.856406199999995,14.262933219240084,1
"I. S. "" G.MARCONI""",IST PROF INDUSTRIA E ARTIGIANATO,NAPOLI,GIUGLIANO IN CAMPANIA,VIA G.B. BASILE 37,80014,E054,NAIS13700L@istruzione.it,www.istitutocasellidesanctis.edu.it,NARI137018,40.9337376,14.235709940216086,1
I.C.LUSERNA S.GIOV.-S.GIOVANNI,SCUOLA PRIMARIA,TORINO,LUSERNA SAN GIOVANNI,STR.VECCHIA DI S. GIOVANNI,10062,E758,TOIC843009@istruzione.it,http//icdeamicis-luserna.it,TOEE84302C,44.8184793,7.2714109,0
U. FOSCOLO,SCUOLA PRIMO GRADO,ROMA,ROMA,VIA MADONNA DELL'ORTO 2,00153,H501,RMIC80800E@istruzione.it,www.scuolareginamargherita.gov.it,RMMM80801G,41.8664585,12.477999882906396,1
E. MAJORANA,LICEO SCIENTIFICO,TORINO,TORINO,VIA FRATTINI 11,10137,L219,TOIS003003@istruzione.it,www.majoranatorino.it,TOPS00301D,45.3320533,7.2674162,1
I.C. MANTEGNA/BONANNO-M. NUNZIO,SCUOLA PRIMARIA,PALERMO,PALERMO,VIA BOLOGNI4,90136,G273,PAIC85300A@istruzione.it,www.icmantegnaborsellino.gov.it,PAEE85301C,45.6791599,13.4026638,1
ARDUINO SEZ OSPEDALE REGINA MARGHERITA,ISTITUTO TECNICO COMMERCIALE,TORINO,TORINO,PIAZZA POLONIA 94,10100,L219,TOIS066006@istruzione.it,www.copernicoluxemburg.gov.it,TOTD06604G,45.0349293,7.6751718,0
QUINTO PROFILI/FRAZ.BARIANA,SCUOLA INFANZIA,MILANO,GARBAGNATE MILANESE,VIA STELVIO 12,20024,D912,MIIC8EK004@istruzione.it,www.icwojtylagarbagnate.it,MIAA8EK011,45.5746615,9.0606592,0
C.D.COLLEGNO III-DON SAPINO,SCUOLA PRIMARIA,TORINO,COLLEGNO,VIA VILLA CRISTINA 6,10093,C860,TOEE10500D@istruzione.it,www.scuolecollegno3.it,TOEE10503L,45.1134054,7.6143084,0
BACOLI IC 1 P. DI TARSO,ISTITUTO COMPRENSIVO,NAPOLI,BACOLI,VIA RISORGIMENTO 120,80070,A535,NAIC8DZ00T@istruzione.it,Non Disponibile,NAIC8DZ00T,40.7981051,14.0770058,0
I.C. GRUGLIASCO - 66 MARTIRI,SCUOLA PRIMO GRADO,TORINO,GRUGLIASCO,VIA OLEVANO 81,10095,E216,TOIC86200P@istruzione.it,www.ic66martirigrugliasco.edu.it,TOMM86201Q,45.0586592,7.5682486,0
IC. MONCALIERI-NASI - PASCOLI,SCUOLA PRIMARIA,TORINO,MONCALIERI,STR. VECCHIA DEL MORIONDO 6,10027,F335,TOIC887003@istruzione.it,htt//www.icnasi.it,TOEE887048,44.9865346,7.7306209,0
NA IC 18 - VOLINO - PIAZZI,SCUOLA INFANZIA,NAPOLI,NAPOLI,VIA PIAZZI 4,80137,F839,NAIC8BX001@istruzione.it,www.volinocroce.it,NAAA8BX01T,40.856406199999995,14.262933219240084,1
C.T.P. CARCERI,CENTRO TERRITORIALE,TORINO,TORINO,Non Disponibile,Non Disponibile,L219,TOMM32300Q@istruzione.it,Non Disponibile,TOCT714006,45.3320533,7.2674162,1
CASTELLANA 40,SCUOLA PRIMARIA,PALERMO,PALERMO,VIA CASTELLANA 40,90135,G273,PAIC87100X@istruzione.it,www.scuolabuonarroti.gov.it,PAEE871012,38.1258614,13.3139317,0
"IIS""BENINI""LICEO SCIENTIF./SCIENZE UMANE",LICEO SCIENTIFICO,MILANO,MELEGNANO,VIA CAVOUR 1,20077,F100,MIIS02100L@istruzione.it,istututobenini.eu,MIPS021013,43.620489649999996,10.633351575333917,1
SMS SAN GIORGIO,SCUOLA PRIMO GRADO,ROMA,FIUMICINO,VIA DI MACCARESE 24,00054,M297,RMIC8DJ006@istruzione.it,WWW.ICMACCARESE.GOV.IT,RMMM8DJ017,41.8768276,12.2415157,0
GUGLIELMO NERI - MARCELLINA -,SCUOLA PRIMO GRADO,ROMA,MARCELLINA,VIA A. MANZONI 3,00010,E924,RMIC8AS009@istruzione.it,www.icmarcellina.it,RMMM8AS01A,42.0232793,12.8075905,1
"""E. Q. VISCONTI""",SCUOLA PRIMO GRADO,ROMA,ROMA,VIA QUATTRO NOVEMBRE 95,00186,H501,RMIC818005@istruzione.it,www.icvisconti.it,RMMM818016,41.7273738,12.8275567,0
I.C.SETTIMO VITTONE- CAP.,SCUOLA PRIMARIA,TORINO,SETTIMO VITTONE,VIA PROVINCIALE N. 17,10010,I702,TOIC849008@istruzione.it,WWW.ICSETTIMO VITTONE,TOEE84901A,45.5505957,7.8340534,0
ILARIA ALPI,ISTITUTO COMPRENSIVO,ROMA,LADISPOLI,VIA VARSAVIA 5,00055,M212,RMIC8CJ00G@istruzione.it,Non Disponibile,RMIC8CJ00G,41.9581146,12.0927968,0
"I.C. IVREA II-""DON MILANI""",SCUOLA INFANZIA,TORINO,IVREA,PIAZZA DELLA REPUBBLICA,10015,E379,TOIC8AB00N@istruzione.it,http//www.icivrea2.it,TOAA8AB03L,45.4434627,7.8711182,0
I. PORRO,IST PROF PER I SERVIZI COMMERCIALI,TORINO,PINEROLO,VIALE KENNEDY 30,10064,G674,TOIS01400D@istruzione.it,www.alberti-porro.gov.it,TORC01403E,44.8881078,7.3444309,0
S.ANTONIO ABATE CESANO,SCUOLA PRIMARIA,NAPOLI,SANT'ANTONIO ABATE,VIA CESANO,80057,I300,NAEE183008@istruzione.it,Non Disponibile,NAEE18306E,40.72808,14.5460655,0
ITC E TURISTICO G.MOSCATI-SANT'ANTIMO-,ISTITUTO TECNICO COMMERCIALE,NAPOLI,SANT'ANTIMO,VIA F. SOLIMENA44,80029,I293,NAIS077006@istruzione.it,www.ismoscati.edu.it,NATD07701C,40.9337376,14.235709940216086,1
S.QUASIMODO,SCUOLA PRIMARIA,ROMA,ROMA,VIA LATINA 550,00179,H501,RMIC8CU003@istruzione.it,www.mommsen.edu.it,RMEE8CU015,41.873225,12.5142043,0
C. U. 2,SCUOLA INFANZIA,ROMA,ARICCIA,VIA CARDINALE F. CHIGI 2,00040,A401,RMIC8A3002@istruzione.it,www.icvitovolterra.gov.it,RMAA8A302X,41.719752299999996,12.670581001757748,1
MICHELANGELO,SCUOLA PRIMARIA,PALERMO,PALERMO,LARGO MICHELANGELO6 /11/ 15,90135,G273,PAIC8A000C@istruzione.it,www.icsritalevimontalcini.it/,PAEE8A003L,45.6791599,13.4026638,1
CARDITO IC M. POLO - GALILEI,ISTITUTO COMPRENSIVO,NAPOLI,CARDITO,VIA DONADIO,80024,B759,NAIC8EL00D@istruzione.it,Non Disponibile,NAIC8EL00D,40.9338295,14.3011988,0
CRISPI,SCUOLA PRIMARIA,ROMA,ROMA,VIA BARRILI 13,00152,H501,RMIC8FT003@istruzione.it,www.iclargooriani.gov.it,RMEE8FT015,41.8664585,12.477999882906396,1
POZZUOLI I.C. 5 ARTIACO S.LUCIA,SCUOLA PRIMARIA,NAPOLI,POZZUOLI,VIA LUCIANO,80078,G964,NAIC8D7006@istruzione.it,www.ic5artiaco.it,NAEE8D704B,40.8324341,14.1145204,0
VIA MONTEZEBIO,SCUOLA INFANZIA,ROMA,ROMA,VIA MONTEZEBIO 33,00195,H501,RMIC8GW005@istruzione.it,www.iccaludioabbado.gov.it,RMAA8GW012,41.8664585,12.477999882906396,1
CAVALIERI,IST PROF PER I SERVIZI COMMERCIALI,MILANO,MILANO,VIA OLONA14,20123,F205,MIRC08000A@istruzione.it,www.istitutocavalieri-superiori.it,MIRC08000A,45.4667585,9.1904133,1
IC VIA CAIROLI/LAINATE,ISTITUTO COMPRENSIVO,MILANO,LAINATE,VIA CAIROLI 31,20020,E415,MIIC8BE00Q@istruzione.it,Non Disponibile,MIIC8BE00Q,45.569836,9.0272003,1
M. MASCHERPA,SCUOLA PRIMARIA,MILANO,SOLARO,VIA SAN FRANCESCO,20020,I786,MIIC83300P@istruzione.it,www.icsolaro.it,MIEE83303V,45.6135032,9.0824202,0
VILLARICCA I.C. CALVINO,SCUOLA PRIMARIA,NAPOLI,VILLARICCA,VIA PALERMO 134,80010,G309,NAIC885001@istruzione.it,www.calvinovillaricca.it,NAEE885013,40.9136604,14.1631011,0
POZZUOLI I.C. 7 PERGOLESI VIVIA,SCUOLA PRIMARIA,NAPOLI,POZZUOLI,VIA VIVIANI 3,80072,G964,NAIC8DW00A@istruzione.it,ISTITUTOCOMPRENSIVO 7 ?PERGOLESI2,NAEE8DW01C,40.82897025,14.130728600463208,1
I.C. S.M. SAVIO I NAPOLI,SCUOLA PRIMO GRADO,NAPOLI,NAPOLI,CORSO SECONDIGLIANO 80,80144,F839,NAIC827001@istruzione.it,www.icssavio-alfieri.go.it,NAMM827012,40.8932003,14.2604168,0
CARLO PORTA,SCUOLA PRIMO GRADO,MILANO,MILANO,VIA MOISE' LORIA 37,20144,F205,MIIC8FX00T@istruzione.it,icsmoiseloria.gov.it,MIMM8FX01V,45.4581159,9.1583875,0
P.THOUAR E L.GONZAGA - MILANO,SCUOLA PRIMARIA,MILANO,MILANO,VIA BRUNACCI 2/4,20136,F205,MIIC8CD00E@istruzione.it,www.thouar-gonzaga.it,MIEE8CD01L,45.4667585,9.1904133,1
SANDRO PERTINI,SCUOLA PRIMARIA,ROMA,FONTE NUOVA,VIA VINCENZO CUOCO 63,00013,M309,RMIC87800R@istruzione.it,www.scuolapertini.it,RMEE87801V,42.0020299,12.623463263148302,0
I.C. SAN GIORGIO-CANDIA C.SE.,SCUOLA PRIMARIA,TORINO,CANDIA CANAVESE,VIA IVREA 69,10010,B588,TOIC8BT004@istruzione.it,www.icsangiorgiocanavese.it,TOEE8BT038,45.3322194,7.888474,0
IIS MAJORANA DI TORINO SEZ. SERALE,ISTITUTO TECNICO COMMERCIALE,TORINO,TORINO,CORSO  TAZZOLI 209,10137,L219,TOIS003003@istruzione.it,www.majoranatorino.it,TOTD00352Q,45.3320533,7.2674162,1
G.A. COLOZZA,SCUOLA INFANZIA,PALERMO,PALERMO,VIA IMERA 32,90138,G273,PAIC85100P@istruzione.it,wwwiccolozzabonfiglio.it,PAAA85102L,38.1141306,13.3499952,0
BLAISE PASCAL -INDIRIZZO SCIENTIFICO,LICEO SCIENTIFICO,ROMA,POMEZIA,VIA PIETRO NENNI 48,00040,G811,RMIS064003@istruzione.it,www.liceoblaisepascal.it,RMPS06401D,41.6596594,12.5011302,0
AGNESI,ISTITUTO MAGISTRALE,MILANO,MILANO,VIA TABACCHI 17,20136,F205,MIPM03000T@istruzione.it,http//www.liceoagnesimilano.gov.it,MIPM03000T,45.4667585,9.1904133,1
ENRICO MEDI,ISTITUTO TECNICO INDUSTRIALE,PALERMO,PALERMO,VIA LEONARDO DA VINCI 364,90135,G273,PAIS02400E@istruzione.it,http//www.iismedi.gov.it,PATF024013,38.1268782,13.3212951,0
SAN CESAREO,SCUOLA INFANZIA,ROMA,SAN CESAREO,VIA DEI CEDRI,00030,M295,RMIC8AE00N@istruzione.it,www.ic-sancesareo.it,RMAA8AE01E,41.8218548,12.8009895,0
M.SERAO - VOLLA,SCUOLA PRIMO GRADO,NAPOLI,VOLLA,VIA DANTE ALIGHIERI 7,80040,M115,NAIC85700R@istruzione.it,WWW.ICSERAO.IT,NAMM85701T,40.8762711,14.343888,0
VIA MAZZINI,SCUOLA PRIMARIA,ROMA,GUIDONIA MONTECELIO,VIA MAZZINI 1,00012,E263,RMIC8DT00T@istruzione.it,www.scuolagiovanniventitreesimo.it,RMEE8DT032,41.9905654,12.7154038,1
PERC. II LIV. SEZ CARC.,IST PROF PER L'AGRICOLTURA E L'AMBIENTE,ROMA,ROMA,CASAL DEL MARMO,Non Disponibile,H501,Non Disponibile,www.domizialucilla.com,RMRA06102L,41.8664585,12.477999882906396,1
SAN POLO DEI CAVALIERI,SCUOLA PRIMO GRADO,ROMA,SAN POLO DEI CAVALIERI,VIA I MAGGIO SNC,00010,I125,RMIC89300V@istruzione.it,www.istitutobaccellitivoli.it,RMMM893021,42.01245215,12.839954383021382,1
COLLEGNO DON MINZONI-GRAMSCI,SCUOLA PRIMO GRADO,TORINO,COLLEGNO,VIA DONIZETTI 30,10093,C860,TOMM27300X@istruzione.it,http//scuoladonminzonigramsci.gov.it,TOMM27300X,45.0760024,7.569908810416667,0
I.C. SAN GIORGIO - LUSIGLIE',SCUOLA INFANZIA,TORINO,LUSIGLIE',VIA GROMIS 8,10080,E763,TOIC8BT004@istruzione.it,www.icsangiorgiocanavese.it,TOAA8BT044,45.3180409,7.7721419,0
"V.M.RI CEFALONIA ""1""S.DONATO M.",SCUOLA INFANZIA,MILANO,SAN DONATO MILANESE,VIA MARTIRI DI CEFALONIA,20097,H827,MIIC8FB00P@istruzione.it,www.icscrocerossa.it,MIAA8FB01G,45.4166382,9.2676157,0
BUCCIANTE - PALOMBARA SABINA,SCUOLA PRIMO GRADO,ROMA,PALOMBARA SABINA,VIALE RISORGIMENTO SNC,00018,G293,RMIC8AK00E@istruzione.it,www.icpalombarasabina.gov.it,RMMM8AK01G,42.0698996,12.7638065,0
LEONARDO DA VINCI,ISTITUTO COMPRENSIVO,ROMA,LABICO,VIA LEONARDO DA VINCI N. 34,00030,E392,RMIC8CE00V@istruzione.it,Non Disponibile,RMIC8CE00V,41.7873598,12.8819361,0
GALILEO GALILEI,SCUOLA PRIMARIA,ROMA,ROMA,VIA TENUTA DI TORRENOVA 128,00133,H501,RMIC85200L@istruzione.it,www.icdecurtis.gov.it,RMEE85201P,41.8664585,12.477999882906396,1
I.C. RIVOLI MATTEOTTI-CASA SOLE,SCUOLA INFANZIA,TORINO,RIVOLI,VIALE NUVOLI 12,10198,H355,TOIC87100D@istruzione.it,www.icmatteotti.gov.it,TOAA87103C,45.0794422,7.5229068,0
CLINICA NEUROPSICHIATRICA INFAN,SCUOLA PRIMARIA,ROMA,ROMA,VIA DEI SABELLI,00185,H501,RMIC8BK005@istruzione.it,Non Disponibile,RMEE8BK05B,41.8970166,12.515414,0
VIA RUGANTINO 91,SCUOLA PRIMO GRADO,ROMA,ROMA,VIA RUGANTINO 91,00169,H501,RMIC8CT007@istruzione.it,www.icrugantino91.gov.it,RMMM8CT018,41.8636227,12.5809322,0
MUNARI,SCUOLA INFANZIA,MILANO,CORSICO,VIA LUIGI SALMA,20094,D045,MIIC88800V@istruzione.it,www.icbuonarroticorsico.gov.it,MIAA88801Q,45.4286222,9.1080977,0
ITN(SS)-T-GRECO-,ISTITUTO TECNICO NAUTICO,NAPOLI,TORRE DEL GRECO,CORSO  V.EMANUELE-VILLA COMUNALE,80059,L259,NAIS01700E@istruzione.it,www.iscolombo.it,NATH01701E,40.7892102,14.360048171045122,1
RODARI GIANNI - S.GIORGIO S/L.,SCUOLA PRIMARIA,MILANO,SAN GIORGIO SU LEGNANO,VIA VITTORIO VENETO 56,20010,H884,MIIC845001@istruzione.it,www.icscarducci.gov.it,MIEE845024,45.57001425,8.91127400851392,0
MI/S.UGUZZONE AGGR.SMS CALVINO,SCUOLA PRIMARIA,MILANO,MILANO,VIA SANT'UGUZZONE10,20126,F205,MIIC81900C@istruzione.it,www.icsitalocalvino.gov.it,MIEE81902G,45.4667585,9.1904133,1
FIUME GIALLO,SCUOLA PRIMARIA,ROMA,ROMA,VIA FIUME GIALLO 45,00144,H501,RMIC8FJ00B@istruzione.it,ICFIUMEGIALLO.GOV.IT,RMEE8FJ01D,41.8109761,12.4283293,0
CASORIA 4 - ARPINO,SCUOLA INFANZIA,NAPOLI,CASORIA,VIA ARPINO2,80026,B990,NAIC8ES00N@istruzione.it,www.icpuccini4cd.gov.it,NAAA8ES02G,40.9052651,14.2892207,1
"IST. PROF. ALBERGH. ""TILGHER""-ERCOLANO-",IST PROF PER I SERVIZI COMMERCIALI,NAPOLI,ERCOLANO,VIA BORDIGA,80056,H243,NAIS01100G@istruzione.it,www.istitutotilgher.gov.it,NARC01101E,40.8079792,14.3588425,0
S.GIORGIO A CR. 2 - CAPOBIANCO,SCUOLA PRIMARIA,NAPOLI,SAN GIORGIO A CREMANO,VIA GALANTE 40,80046,H892,NAIC8FE00Q@istruzione.it,www.2circolosangiorgio.it,NAEE8FE02V,40.8260524,14.3359295,0
A. MARIANI,SCUOLA INFANZIA,ROMA,VELLETRI,VIA PAOLINA 126,00049,L719,RMIC8F700A@istruzione.it,www.ginofelci.it,RMAA8F7017,41.6900131,12.776211,0
IC R.PEZZANI/MILANO,ISTITUTO COMPRENSIVO,MILANO,MILANO,VIA MARTINENGO 34/6,20139,F205,MIIC8DU005@istruzione.it,Non Disponibile,MIIC8DU005,45.4667585,9.1904133,1
T.GRECO I.C. 2 MORELLI SAURO,SCUOLA PRIMARIA,NAPOLI,TORRE DEL GRECO,VIA CIRCUMVALLAZIONE 184,80059,L259,NAIC8CN00X@istruzione.it,WWW.IC2SAUROMORELLI.GOV.IT,NAEE8CN012,40.7845899,14.3756555,0
PIMONTE - FRANCHE,SCUOLA PRIMARIA,NAPOLI,PIMONTE,VIA FRANCHE,80050,G670,NAIC86400X@istruzione.it,www.icsdelpozzo.it,NAEE864012,40.673459,14.5265726,0
IPIA CASELLI-NAPOLI-,IST PROF INDUSTRIA E ARTIGIANATO,NAPOLI,NAPOLI,PARCO DI CAPODIMONTE,80131,F839,NAIS133009@istruzione.it,http//www.isattilioromano.gov.it,NARI133022,40.8742505,14.25511266933965,0
GIANNI RODARI/GARBAGNATE MIL.SE,SCUOLA INFANZIA,MILANO,GARBAGNATE MILANESE,VIA BOLZANO,20024,D912,MIIC8EK004@istruzione.it,www.icwojtylagarbagnate.it,MIAA8EK022,45.5781081,9.0699202,0
IC GIOVANNI XXIII/CESATE,ISTITUTO COMPRENSIVO,MILANO,CESATE,VIA VENEZIA,20020,C569,MIIC8BA00C@istruzione.it,Non Disponibile,MIIC8BA00C,45.5879607,9.0704513,0
IST.MAG.VILLARI-NAPOLI-,ISTITUTO MAGISTRALE,NAPOLI,NAPOLI,VIA RIMINI 6,80143,F839,NAPM05000L@istruzione.it,www.liceovillari.it,NAPM05000L,40.8573131,14.2751738,0
CIAMPINO I - V. BACHELET,SCUOLA PRIMARIA,ROMA,CIAMPINO,VIA DUE GIUGNO 16,00043,M272,RMEE220001@istruzione.it,Non Disponibile,RMEE220001,41.8004198,12.6010462,0
NA IC 18 - VOLINO - PIAZZI,SCUOLA PRIMARIA,NAPOLI,NAPOLI,VIA PIAZZI 4,80137,F839,NAIC8BX001@istruzione.it,www.volinocroce.it,NAEE8BX013,40.856406199999995,14.262933219240084,1
PRINCIPE DI PIEMONTE,SCUOLA PRIMARIA,ROMA,ROMA,VIA OSTIENSE 263/C,00146,H501,RMIC8FD00V@istruzione.it,WWW.ICPADRESEMERIA.IT,RMEE8FD011,41.8493376,12.4749379,0
I.C. DI CORSO VERCELLI,ISTITUTO COMPRENSIVO,TORINO,TORINO,CORSO  VERCELLI 141/6,10155,L219,TOIC8B700B@istruzione.it,Non Disponibile,TOIC8B700B,45.1143689,7.698907,0
JEAN PIAGET,SCUOLA PRIMARIA,ROMA,ROMA,VIA SEGGIANO 34,00139,H501,RMIC8ED008@istruzione.it,www.icpiazzaminuciano.gov.it,RMEE8ED01A,41.9527435,12.5143725,0
GIUSEPPE GARIBALDI,SCUOLA INFANZIA,ROMA,ROMA,VIA MONDOVI' 16,00183,H501,RMIC8GE009@istruzione.it,www.istitutocomprensivoceneda.it,RMAA8GE016,41.8773379,12.5154185,0
I.C. D'AZEGLIO - NIEVO,ISTITUTO COMPRENSIVO,TORINO,TORINO,VIA MENTANA 14,10133,L219,TOIC8CA003@istruzione.it,Non Disponibile,TOIC8CA003,45.0552629,7.6934884,0
CAP. BASILE E.= I.C. CAVOUR,SCUOLA PRIMARIA,PALERMO,PALERMO,VIA CROCIFISSO A PIETRATAGLIATA 7/D,90135,G273,PAIC8AU00Q@istruzione.it,www.icspestalozzi-cavour.it,PAEE8AU041,45.6791599,13.4026638,1
NA - I.C. NOVARO- CAVOUR,ISTITUTO COMPRENSIVO,NAPOLI,NAPOLI,VIA NICOLARDI 236,80131,F839,NAIC82200T@istruzione.it,Non Disponibile,NAIC82200T,40.8729439,14.2366765,0
"C.T.P.C/O SMS ""CUCINIELLO"" TREZZANO S/N",CENTRO TERRITORIALE,MILANO,TREZZANO SUL NAVIGLIO,VIA CONCORDIA2/4,20090,L409,MIMM0CE00B@istruzione.it,Non Disponibile,MICT71100P,45.417989899999995,9.069077884402454,1
VIGNA MURATA,SCUOLA PRIMARIA,ROMA,ROMA,VIA VINCENZO DRAGO 108,00143,H501,RMIC869002@istruzione.it,WWW.icpurificato.com,RMEE869014,41.8223128,12.5062822,0
ANTONIO DE CURTIS,SCUOLA PRIMO GRADO,ROMA,ROMA,VIA TENUTA DI TORRENOVA 130,00133,H501,RMIC85200L@istruzione.it,www.icdecurtis.gov.it,RMMM85201N,41.8664585,12.477999882906396,1
E. LOMBARDINI,IST PROF PER I SERVIZI COMMERCIALI E TURISTICI,MILANO,ABBIATEGRASSO,VIA VIVALDI 8,20081,A010,MIIS01400D@istruzione.it,iisalessandrini.it,MIRC01401C,45.38748055,8.883532731815627,1
RENZO PEZZANI,SCUOLA PRIMARIA,ROMA,ROMA,PIAZZA DEI MIRTI 31,00172,H501,RMIC8CC007@istruzione.it,www.icviatordeschiavi175.gov.it,RMEE8CC03B,41.8814103,12.5669236,0
UNIVERSITA' CLINICA PEDIATRICA,SCUOLA PRIMARIA,ROMA,ROMA,VIALE  UNIVERSITA' POLICLI.,00185,H501,RMIC8BK005@istruzione.it,Non Disponibile,RMEE8BK039,41.8664585,12.477999882906396,1
VIA NOMENTUM,SCUOLA INFANZIA,ROMA,ROMA,VIA NOMENTUM 80,00131,H501,Non Disponibile,WWW.IC.SANTAPROCULA.GOV.IT,RMAA8G801N,41.9424332,12.6000305,0
SEGNI VIA MARCONI15,ISTITUTO COMPRENSIVO,ROMA,SEGNI,PIAZZA  RISORGIMENTO27,00037,I573,RMIC8AZ00T@istruzione.it,Non Disponibile,RMIC8AZ00T,44.13410535,11.16351409242269,1
I.C. GASSINO - VIA BORIONE,SCUOLA PRIMARIA,TORINO,GASSINO TORINESE,VIA BORIONE 5,10090,D933,TOIC851008@istruzione.it,www.icgassino.eu,TOEE85101A,45.1254279,7.8229829,0
I.C.TORRE PELLICE-ANGROGNA,SCUOLA PRIMARIA,TORINO,ANGROGNA,PIAZZA ROMA,10060,A295,TOIC81300D@istruzione.it,www.icrodari.it,TOEE81302L,44.8437599,7.2240535,0
BACOLI I.C. 1 P. DI TARSO,SCUOLA PRIMO GRADO,NAPOLI,BACOLI,VIA RISORGIMENTO 66,80070,A535,NAIC8DZ00T@istruzione.it,www.icpaoloditarso.gov.it,NAMM8DZ01V,40.7981051,14.0770058,0
NA IC DON G. RUSSOLILLO,SCUOLA PRIMARIA,NAPOLI,NAPOLI,VIA COMUNALE NAPOLI 101,80126,F839,NAIC8CU004@istruzione.it,www.icrussolillo.gov.it,NAEE8CU016,40.8607581,14.1790585,0
B.CROCE,IST PROF PER I SERVIZI COMMERCIALI E TURISTICI,ROMA,CIVITAVECCHIA,VIA DELLA POLVERIERA2,00053,C773,RMIS04600D@istruzione.it,www.iisadige.it,RMRC04601C,41.8118482,12.3177862,1
I.C. CAPACI/B. SICILIANO-VIA Z,SCUOLA PRIMARIA,PALERMO,CAPACI,VIA ZIMA,90040,B645,PAIC8A400Q@istruzione.it,www.scuolabiagiosiciliano.it,PAEE8A401T,38.1742011,13.2400954,0
REGINA ELENA,SCUOLA PRIMARIA,MILANO,SOLARO,VIA SAN FRANCESCO,20020,I786,MIIC83300P@istruzione.it,www.icsolaro.it,MIEE83301R,45.6135032,9.0824202,0
C.D. COLLEGNO III - RODARI,SCUOLA INFANZIA,TORINO,COLLEGNO,VIA PIANEZZA 4/14,10093,C860,TOEE10500D@istruzione.it,www.scuolecollegno3.it,TOAA10507G,45.0971654,7.5969511,0
PORTICI IC 1 - DON BOSCO,SCUOLA INFANZIA,NAPOLI,PORTICI,VIA ROMA 32,80055,G902,NAIC8CA00L@istruzione.it,www.ic1donboscomelloni.gov.it,NAAA8CA01D,40.8178127,14.3340698,0
I. C. BUSSOLENO - BRUZOLO,SCUOLA INFANZIA,TORINO,BRUZOLO,VIA MATARAZZO 1,10050,B232,TOIC899009@istruzione.it,http//www.icbussoleno.it,TOAA899016,45.1430004,7.1943126,0
I.C. M.MITILINI,SCUOLA PRIMO GRADO,NAPOLI,CASORIA,VIA CASTAGNA,80026,B990,NAIC8EU009@istruzione.it,www.icmauromitilini.it,NAMM8EU01A,40.8991725,14.3062751,0
VIA ADDA 36 - CORMANO,SCUOLA PRIMO GRADO,MILANO,CORMANO,VIA ADDA 36,20032,D013,MIIC8AW00T@istruzione.it,WWW.ICMANZONICORMANO.GOV.IT,MIMM8AW01V,45.5461235,9.1651951,0
IPSIA G.MARCONI(SC),IST PROF INDUSTRIA E ARTIGIANATO,NAPOLI,GIUGLIANO IN CAMPANIA,VIA G. B. BASILE 37,80014,E054,NAIS13700L@istruzione.it,www.istitutocasellidesanctis.edu.it,NARI13751N,40.9337376,14.235709940216086,1
"SCUOLA MEDIA ""G.VERDI""",SCUOLA PRIMO GRADO,MILANO,MILANO,VIA CORRIDONI 34/36,20122,F205,MIIC8DE001@istruzione.it,www.icscuocosassi.it,MIMM8DE012,45.5297143,9.40558084142889,0
C.T.P. 23 C/O I.I.S. DI VITTORIO,CENTRO TERRITORIALE,ROMA,LADISPOLI,VIA I. DE BEGNAC 6,00055,M212,VTMM047008@istruzione.it,Non Disponibile,RMCT72200N,41.8605812,12.1948241,1
D.D. N. GARZILLI - PA,SCUOLA PRIMARIA,PALERMO,PALERMO,VIA ISONZO 7,90144,G273,PAEE020005@istruzione.it,Non Disponibile,PAEE020005,38.141956,13.342448,0
I.C. CARMAGNOLA III- VILLAST.,SCUOLA INFANZIA,TORINO,VILLASTELLONE,VIA COSSOLO N.10,10029,M027,TOIC8AM009@istruzione.it,www.ic3carmagnola.it,TOAA8AM027,44.9211632,7.7477717,0
SC. MEDIA BORSELLINO,SCUOLA PRIMO GRADO,PALERMO,PALERMO,PIAZZA PIETRO MICCA 29,90136,G273,PAIC85300A@istruzione.it,www.icmantegnaborsellino.gov.it,PAMM85301B,38.1091606,13.308495,0
"IC. MONCALIERI NASI""PINOCCHIO""",SCUOLA INFANZIA,TORINO,MONCALIERI,VIA CERNAIA 26,10024,F335,TOIC887003@istruzione.it,http//www.icnasi.it,TOAA887021,45.00097,7.6971523,0
BADINI,SCUOLA PRIMARIA,ROMA,ROMA,PIAZZA  SANT'ALESSIO 34,00153,H501,RMIC80800E@istruzione.it,ww.scuolareginamargherita.gov.it,RMEE80803P,41.8664585,12.477999882906396,1
I.C. CRUILLAS- PLESSO SALERNO,SCUOLA PRIMARIA,PALERMO,PALERMO,VIA SALERNO19,90146,G273,PAIC8AA008@istruzione.it,www.iccruillas.gov.it,PAEE8AA03C,45.6791599,13.4026638,1
IC. AZEGLIO-CARAVINO,SCUOLA PRIMARIA,TORINO,CARAVINO,VIA ALPINA 17,10010,B733,TOIC894006@istruzione.it,http//www.icazeglio.gov.it/,TOEE894018,45.3993899,7.9590166,0
MALASPINA,SCUOLA PRIMARIA,ROMA,ROMA,VIA A.PIO 84,00145,H501,RMIC8CH00A@istruzione.it,www.scuolasevero@istruzione.it,RMEE8CH02D,41.8664585,12.477999882906396,1
SAN GIOVANNI BOSCO,SCUOLA INFANZIA,PALERMO,SAN CIPIRELLO,VIA ENRICO BERLINGUER S.N.C.,90040,H797,PAIC81500G@istruzione.it,www.icsancipirello.it,PAAA81501C,37.9594956,13.1772144,0
I.I.S. PACINOTTI - ARCHIMEDE,ISTITUTO TECNICO INDUSTRIALE,ROMA,ROMA,VIA MONTAIONE 15,00139,H501,RMIS09400V@istruzione.it,www.pacinottiarchimede.it,RMTF09401B,41.9488773,12.514869343219504,0
I.C. GIOTTO/CIPOLLA-BORSELLINO,SCUOLA PRIMARIA,PALERMO,PALERMO,VIA GIOTTO 41,90145,G273,PAIC8AM00Q@istruzione.it,http//www.icsgiottocipolla.it,PAEE8AM01T,38.1310202,13.3305784,0
8 MARZO,ISTITUTO TECNICO COMMERCIALE,TORINO,SETTIMO TORINESE,VIA LEINI' 54,10036,I703,TOIS031007@istruzione.it,www.istituto8marzo.gov.it,TOTD03101D,45.1405556,7.7586292,0
I.C. PINEROLO II - LAURO,ISTITUTO COMPRENSIVO,TORINO,PINEROLO,VIA BATTITORE ANG. VIA GIUSTETTO,10064,G674,TOIC8BJ00C@istruzione.it,Non Disponibile,TOIC8BJ00C,44.882003499999996,7.334099642186448,1
I.C. GRUGLIASCO - M. L. KING,ISTITUTO COMPRENSIVO,TORINO,GRUGLIASCO,VIALE  RADICH 3,10095,E216,TOIC81200N@istruzione.it,Non Disponibile,TOIC81200N,45.06237125,7.577498496457702,1
I.C.INDRO MONTANELLI,ISTITUTO COMPRENSIVO,ROMA,ROMA,PIAZZA L. CERVA 45,00143,H501,RMIC86100B@istruzione.it,Non Disponibile,RMIC86100B,41.8664585,12.477999882906396,1
BODONI - PARAVIA,ISTITUTO SUPERIORE,TORINO,TORINO,VIA PONCHIELLI56,10154,L219,TOIS01300N@istruzione.it,Non Disponibile,TOIS01300N,45.3320533,7.2674162,1
SC.MATERNA VIA CASTELLANA,SCUOLA INFANZIA,PALERMO,PALERMO,VIA CASTELLANA 40,90135,G273,PAIC87100X@istruzione.it,www.scuolabuonarroti.it,PAAA87102T,38.1258614,13.3139317,0
LINGUISTICO EUROPEO DI ARCONATE-BUSCATE,LICEO SCIENTIFICO,MILANO,ARCONATE,PIAZZA SAN CARLO 2,20020,A375,MIPS580006@istruzione.it,http//www.omnicomprensivoeuropeo.gov.it,MIPS580006,45.5414609,8.8518521,0
MARCELLINA,SCUOLA PRIMARIA,ROMA,MARCELLINA,VIA REGINA ELENA 45,00010,E924,RMIC8AS009@istruzione.it,www.icmarcellina.it,RMEE8AS01B,42.023772,12.807119,0
IC REGINA ELENA/SOLARO,ISTITUTO COMPRENSIVO,MILANO,SOLARO,VIA DRIZZA16,20020,I786,MIIC83300P@istruzione.it,Non Disponibile,MIIC83300P,45.4884127,12.250145232225565,1
SCUOLA SPECIALELEONARDA VACCARI,SCUOLA PRIMARIA,ROMA,ROMA,VIALE ANGELICO 22,00195,H501,RMIC8GW005@istruzione.it,www.icclaudioabbado.gov.it,RMEE8GW028,41.9114157,12.4581182,0
"I.C. GASSINO ""GANDHI""",SCUOLA PRIMARIA,TORINO,GASSINO TORINESE,VIA PO' N. 12,10090,D933,TOIC851008@istruzione.it,www.icgassino.eu,TOEE85102B,45.1302229,7.8218451,0
ITI L.GALVANI-GIUGLIANO-,ISTITUTO TECNICO INDUSTRIALE,NAPOLI,GIUGLIANO IN CAMPANIA,VIA MARCHESELLA 188,80014,E054,NATF130009@istruzione.it,www.itisgalvani.it,NATF130009,40.9337376,14.235709940216086,1
I.C. VILLARICCA,SCUOLA INFANZIA,NAPOLI,VILLARICCA,VIA BOLOGNA N. 57,80100,G309,NAIC885001@istruzione.it,www.calvinovillaricca.it,NAAA88502V,40.8995414,14.122413,1
ERCOLANO 2 - VIA SEMMOLA -,SCUOLA PRIMARIA,NAPOLI,ERCOLANO,VIA SEMMOLA 6,80056,H243,NAEE133007@istruzione.it,Non Disponibile,NAEE133007,40.8250786,14.3549039,1
POZZUOLI I.C. 5 ARTIACO PISCIAR,SCUOLA PRIMARIA,NAPOLI,POZZUOLI,VIA PISCIARELLI 2,80078,G964,NAIC8D7006@istruzione.it,www.ic5artiaco.it,NAEE8D7029,40.8319372,14.155705841511317,0
I.C. S.M. SAVIO I ALFIERI,SCUOLA INFANZIA,NAPOLI,NAPOLI,CORSO SECONDIGLIANO 80,80144,F839,NAIC827001@istruzione.it,www.icssavio-alfieri.gov.it,NAAA82701T,40.8932003,14.2604168,0
SANT'AGNELLO- CAPOLUOGO -,SCUOLA PRIMARIA,NAPOLI,SANT'AGNELLO,CORSO ITALIA 49/B,80065,I208,NAIC85800L@istruzione.it,istitutogemelli.gov.it,NAEE85801P,40.6302904,14.3987909,0
RAGGIO DI SOLE,SCUOLA INFANZIA,ROMA,MONTEROTONDO,VIA MONTE ARGENTARIO SNC,00015,F611,RMIC88700G@istruzione.it,www.loredanacampanari.gov.it,RMAA88702D,42.0577966,12.5862758,0
L. CASALE,ISTITUTO TECNICO INDUSTRIALE,TORINO,TORINO,VIA FIGLIE DEI MILITARI 25,10131,L219,TOIS066006@istruzione.it,www.gmca.gov.it,TOTF066514,45.0642876,7.7096695,0
"DIR. DID. STAT.""CIAMPINO II""",SCUOLA PRIMARIA,ROMA,CIAMPINO,VIA BOLOGNA SNC,00043,M272,RMEE22100R@istruzione.it,Non Disponibile,RMEE22100R,41.7894335,12.6131062,0
LICEO ARTISTICO STATALE G.C. ARGAN,ISTITUTO D'ARTE,ROMA,ROMA,PIAZZA DEI DECEMVIRI 12,00175,H501,RMSD10000R@istruzione.it,www.liceoargan.gov.it,RMSD10000R,41.8578353,12.568226649952061,0
MUGNANO 1 - MURELLE,SCUOLA INFANZIA,NAPOLI,MUGNANO DI NAPOLI,VIA MURELLE,80018,F799,NAEE15100R@istruzione.it,www.cdsequino.gov.it,NAAA15102N,40.9093962,14.2005045,0
"I.C. LA LOGGIA - ""B. FENOGLIO""",SCUOLA PRIMARIA,TORINO,LA LOGGIA,VIA DELLA CHIESA 45,10040,E423,TOIC886007@istruzione.it,www.iclaloggia.gov.it,TOEE886019,44.9574677,7.6624822,0
PIRANDELLO - SEDRIANO,SCUOLA PRIMO GRADO,MILANO,SEDRIANO,VIA ROGERIO DA SEDRIANO,20018,I566,MIIC865006@istruzione.it,icsedriano.gov.it,MIMM865017,45.4886462,8.9737111,0
NATOLI,SCUOLA INFANZIA,PALERMO,PALERMO,CORSO DEI MILLE 1486,90121,G273,PAIC85200E@istruzione.it,www.icsdivittorio.it,PAAA85203D,38.0956916,13.4009788,0
"I.S.I.S. ""PAOLO COLOSIMO""",ISTITUTO SUPERIORE,NAPOLI,NAPOLI,VIA SANTA TERESA DEGLI SCALZI 35,80136,F839,NAIS10700R@istruzione.it,Non Disponibile,NAIS10700R,40.8562238,14.248388,0
ERCOLANO I.C. 5 MAIURI,ISTITUTO COMPRENSIVO,NAPOLI,ERCOLANO,VIA G.D'ANNUNZIO 3/5,80056,H243,NAIC8GL00P@istruzione.it,Non Disponibile,NAIC8GL00P,40.8250786,14.3549039,1
E. MEDI,ISTITUTO SUPERIORE,PALERMO,PALERMO,VIA LEONARDO DA VINCI 364,90135,G273,PAIS02400E@istruzione.it,Non Disponibile,PAIS02400E,38.1268782,13.3212951,0
PAOLO BAFFI,IST PROF PER I SERVIZI COMMERCIALI E TURISTICI,ROMA,FIUMICINO,VIA G. GIORGIS125,00054,M297,RMIS03100Q@istruzione.it,www.iispaolobaffi.it,RMRC03101P,41.7675656,12.2339473,1
IC TIVOLI II - TIVOLI CENTRO,ISTITUTO COMPRENSIVO,ROMA,TIVOLI,VIA DEI PINI 19,00019,L182,RMIC89300V@istruzione.it,Non Disponibile,RMIC89300V,41.955599,12.8016467,0
"""A. B. SABIN SEGRATE",SCUOLA PRIMO GRADO,MILANO,SEGRATE,VIA FRATELLI CERVI,20090,I577,MIIC8BK00L@istruzione.it,www.icsabin.gov.it,MIMM8BK01N,45.4923869,9.2622838,0
COLLE DI MEZZO,SCUOLA INFANZIA,ROMA,ROMA,VIA LUCA GAURICO 231,00143,H501,RMIC86100B@istruzione.it,www.icmontanelli.gov.it,RMAA86103A,41.8244531,12.4853028,0
LA STEFI,SCUOLA INFANZIA,ROMA,ROMA,LARGO GUIDO BUZZELLI 2,00127,H501,RMIC8FJ00B@istruzione.it,ICFIUMEGIALLO.GOV,RMAA8FJ029,41.802649650000006,12.423627776030257,0
I.C. PAVONE - FIORANO,SCUOLA INFANZIA,TORINO,FIORANO CANAVESE,VIA MOLA DI LARISSE',10010,D608,TOIC8AR00C@istruzione.it,www.icpavone.gov.it,TOAA8AR04C,45.4693278,7.8290485,0
I.C. SUSA-NOVALESA,SCUOLA PRIMARIA,TORINO,NOVALESA,VIA SUSA 19,10050,F948,TOIC880008@istruzione.it,www.istitutocomprensivosusa.it,TOEE88006G,45.1876657,7.0144813,0
MI-MATTEI AGGR. S.M.S. CALVINO,SCUOLA PRIMARIA,MILANO,MILANO,VIA MATTEI12,20126,F205,MIIC81900C@istruzione.it,www.icsfrigia.it,MIEE81901E,45.4667585,9.1904133,1
PRATOLUNGO,SCUOLA PRIMARIA,ROMA,VELLETRI,VIA PRATOLUNGO 85,00049,L719,RMIC8F700A@istruzione.it,www.ginofelci.it,RMEE8F706N,41.6368176,12.8008367,0
VIA DELL'AIRONE,SCUOLA INFANZIA,ROMA,ROMA,VIA DELL'AIRONE,00169,H501,RMIC8CT007@istruzione.it,www.icrugantino91.edu.it,RMAA8CT036,41.8661753,12.5952164,0
PABLO PICASSO,SCUOLA PRIMARIA,ROMA,ROMA,VIA MILLET 21,00133,H501,RMIC8E5004@istruzione.it,www.icdonatello.it,RMEE8E5016,41.8616246,12.6518281,0
IC M.TERESA DI CALCUTTA/MILANO,ISTITUTO COMPRENSIVO,MILANO,MILANO,VIA MONDOLFO 7,20138,F205,MIIC8AN00D@istruzione.it,Non Disponibile,MIIC8AN00D,45.4667585,9.1904133,1
VIA FOPPETTE,SCUOLA PRIMARIA,MILANO,MILANO,VIA FOPPETTE 1,20144,F205,MIIC8FX00T@istruzione.it,www.icsmoiseloria.gov.it,MIEE8FX021,45.4667585,9.1904133,1
POGGIOMARINO I.C. E. DE FILIPPO,SCUOLA PRIMARIA,NAPOLI,POGGIOMARINO,VIA NUOVA SAN MARZANO 2,80040,G762,NAIC863004@istruzione.it,www.icdefilippopoggiomarino.gov.it,NAEE863016,40.7951646,14.5488585,0
POMIGLIANO FALC.CAT. PACIANO,SCUOLA PRIMARIA,NAPOLI,POMIGLIANO D'ARCO,VIA S.GIUSTO N.47,80038,G812,NAIC8DE00E@istruzione.it,www.icpomigliano2.gov.it,NAEE8DE01L,40.904109,14.3747594,0
POMIGLIANO 2 - CAPOLUOGO,SCUOLA INFANZIA,NAPOLI,POMIGLIANO D'ARCO,VIA ROMA 24,80038,G812,NAEE358009@istruzione.it,www.secondocircolopomigliano.eu,NAAA358015,40.9118755,14.3902701,0
"IPC ""F. DE SANCTIS"" -NAPOLI-",IST PROF PER I SERVIZI COMMERCIALI E TURISTICI,NAPOLI,NAPOLI,PIAZZA S. MARIA IN PORTICO 23,80122,F839,NAIS133009@istruzione.it,www.giudtinofortunatonapoli.it,NARC133018,40.856406199999995,14.262933219240084,1
NA 05 - MONTALE EUGENIO,SCUOLA PRIMARIA,NAPOLI,NAPOLI,VIALE DELLA RESISTENZA 239,80145,F839,NAEE005006@istruzione.it,Non Disponibile,NAEE005006,40.902242,14.2376972,0
C.D. NA 76 - CENTRO EDA,SCUOLA PRIMARIA,NAPOLI,NAPOLI,VIA GORIZIA 1A,80143,F839,NAMM0CQ00C@istruzione.it,Non Disponibile,NAEE74401X,40.8626584,14.2807446,0
LICEO ARTISTICO E LINGUISTICO PICASSO,ISTITUTO D'ARTE,ROMA,POMEZIA,VIA CAVOUR 5,00071,G811,RMSD11000B@istruzione.it,www.liceopablopicasso.gov.it,RMSD11000B,41.6723713,12.4978297,0
I.C. BRUSASCO - CASALBORGONE,SCUOLA PRIMARIA,TORINO,CASALBORGONE,CORSO BELTRAMO N.14,10020,B867,TOIC86300E@istruzione.it,www.icbrusasco.it,TOEE86306T,45.1298734,7.9391624,0
IC.MONCALIERI-SANTA M. BATTISTI,SCUOLA PRIMARIA,TORINO,MONCALIERI,VIA T. PIATTI 109 (BORGATA  TAGLIAFERRO),10024,F335,TOIC88500B@istruzione.it,htt//www.icsantamaria.gov.it,TOEE88503G,44.9956293,7.6967078,1
SCIPIONE DI CASTRO,SCUOLA INFANZIA,PALERMO,PALERMO,VIA S. DI CASTRO,90134,G273,PAIC85100P@istruzione.it,www.iccolozzabonfiglio.it,PAAA85101G,45.6791599,13.4026638,1
IS.MAG.G.MAZZINI-NAPOLI-,ISTITUTO MAGISTRALE,NAPOLI,NAPOLI,VIA SOLIMENA 62,80129,F839,NAPM02000R@istruzione.it,www.liceomazzininapoli.it,NAPM02000R,40.856406199999995,14.262933219240084,1
IC VIA P. SEMERIA,ISTITUTO COMPRENSIVO,ROMA,ROMA,VIA P. SEMERIA 28,00154,H501,RMIC8FD00V@istruzione.it,Non Disponibile,RMIC8FD00V,41.8664585,12.477999882906396,1
CIAMPINO I-VITTORIO BACHELET,SCUOLA PRIMARIA,ROMA,CIAMPINO,VIA DUE GIUGNO 16,00043,M272,RMEE220001@istruzione.it,www.1circolo.ciampino.it,RMEE220012,41.8004198,12.6010462,0
IC PIAGET-MAJORANA,ISTITUTO COMPRENSIVO,ROMA,ROMA,PIAZZA MINUCCIANO 33,00139,H501,RMIC8ED008@istruzione.it,Non Disponibile,RMIC8ED008,41.9529222,12.51484597610397,0
DE FILIPPO T.,SCUOLA INFANZIA,PALERMO,PALERMO,VIA TOMMASO MARCELLINI N. 2,90135,G273,PAIC8AU00Q@istruzione.it,www.icspestalozzi-cavour.it,PAAA8AU02N,38.0992501,13.3190217,0
I.C. CENA - ABBADIA DI STURA,SCUOLA PRIMARIA,TORINO,TORINO,VIA M. ANGLESIO 17,10156,L219,TOIC80500E@istruzione.it,share.dschola.it/cenatorino/default.aspx,TOEE80502N,45.3320533,7.2674162,1
COSTRUZIONI AMBIENTE E TERRITORIO,ISTITUTO TECNICO PER GEOMETRI,ROMA,CIVITAVECCHIA,VIA NAMAZIANO,00053,C773,RMIS06600P@istruzione.it,www.isiscalamatta.gov.it,RMTL06601B,42.0959983,11.7975719,0
ANTONIO DE CURTIS,ISTITUTO COMPRENSIVO,ROMA,ROMA,VIA DELLA TENUTA DI TORRENOVA 130,00133,H501,RMIC85200L@istruzione.it,Non Disponibile,RMIC85200L,41.8587208,12.6197596,0
I.C. M. BENEVENTANO LUCCI,SCUOLA INFANZIA,NAPOLI,OTTAVIANO,VIA LUCCI,80044,G190,NAIC8CJ00L@istruzione.it,www.icmbeneventano.gov.it,NAAA8CJ02E,45.6464748,13.7559201,1
I.C. ANTONELLI-CASALEGNOMILANI,SCUOLA PRIMARIA,TORINO,TORINO,VIA SAN MARINO 107,10137,L219,TOIC8BZ003@istruzione.it,http//www.scuola-parri-to.gov.it/,TOEE8BZ026,45.0399016,7.6386481,0
I.C. MARINEO - BOLOGNETTA,ISTITUTO COMPRENSIVO,PALERMO,MARINEO,CORSO DEI MILLE N.2,90035,E957,PAIC839004@istruzione.it,Non Disponibile,PAIC839004,37.9533008,13.4129709,0
VIA DEI SALICI,SCUOLA INFANZIA,ROMA,ROMA,VIA DEI SALICI 27,00172,H501,RMIC8EY00G@istruzione.it,www.iclucaghini.it,RMAA8EY01C,41.8751913,12.5731763,0
